stop_id,stop_name,stop_lat,stop_lon,stop_desc,location_type,parent_station,wheelchair_boarding,vehicle_type,platform_code
NSR:Quay:100065,Kvammen,63.029176,9.105756,,,NSR:StopPlace:58143,,700,
NSR:Quay:100322,Brekstad ferjekai,63.686463,9.667577,,,NSR:StopPlace:58691,,1000,
NSR:Quay:100415,Flakk ferjekai,63.451164,10.201632,,,NSR:StopPlace:58659,,1000,
NSR:Quay:100844,Aure,63.268296,8.531815,,,NSR:StopPlace:40461,,700,
NSR:Quay:101366,Moanes,63.466650,11.055481,,,NSR:StopPlace:44730,,700,
NSR:Quay:101521,Olav Tryggvasons gate,63.433292,10.397798,,,NSR:StopPlace:43460,,700,
NSR:Quay:101526,Gluggbekken,63.463053,11.027001,,,NSR:StopPlace:59505,,700,
NSR:Quay:101532,Vold,63.462860,11.021921,,,NSR:StopPlace:59508,,700,
NSR:Quay:101539,Tråsåvika Camping,63.346240,9.961609,,,NSR:StopPlace:59514,,700,
NSR:Quay:101547,Helgesvegen,64.027904,11.544807,,,NSR:StopPlace:59523,,700,
NSR:Quay:101549,Sagvollen,63.834632,11.914587,,,NSR:StopPlace:59525,,700,
NSR:Quay:101567,Lund ferjekai,64.768257,11.622629,,,NSR:StopPlace:59536,,700,
NSR:Quay:101568,Lund ferjekai,64.768124,11.623275,,,NSR:StopPlace:59536,,700,
NSR:Quay:101570,Gottås,63.671391,11.139391,,,NSR:StopPlace:59539,,700,
NSR:Quay:101757,Sommarhus,64.593658,11.687202,,,NSR:StopPlace:59739,,700,
NSR:Quay:101852,Klettkrysset,63.323516,10.300629,Ligger i retning mot Orkanger,,NSR:StopPlace:59821,,700,
NSR:Quay:101853,Klettkrysset,63.323193,10.301244,Ligger i E39 retning fra Orkanger mot Trondheim,,NSR:StopPlace:59821,,700,
NSR:Quay:101854,Klettkrysset,63.322463,10.302161,Ligger i retning fra Melhus mot Trondheim,,NSR:StopPlace:59821,,700,
NSR:Quay:101855,Klettkrysset,63.322136,10.301544,Ligger i retning mot Melhus,,NSR:StopPlace:59821,,700,
NSR:Quay:101913,Beitstad skole,64.110150,11.388872,,,NSR:StopPlace:59862,,700,
NSR:Quay:101914,Borganvegen,64.186437,11.863118,,,NSR:StopPlace:59863,,700,
NSR:Quay:101915,Bruveitakorsen,64.167172,11.814986,,,NSR:StopPlace:59864,,700,
NSR:Quay:101919,Dyrstad,63.896161,11.521708,,,NSR:StopPlace:59868,,700,
NSR:Quay:101922,Fossli,64.005308,11.564706,,,NSR:StopPlace:59870,,700,
NSR:Quay:101929,Helgesvegen,64.028941,11.546253,,,NSR:StopPlace:59523,,700,
NSR:Quay:101930,Himmelbrua,63.936621,11.418926,,,NSR:StopPlace:59876,,700,
NSR:Quay:101931,Kjerkol,64.183754,11.897504,,,NSR:StopPlace:59877,,700,
NSR:Quay:101937,Kvam skole,64.139595,11.739149,,,NSR:StopPlace:59882,,700,
NSR:Quay:101939,Lund,63.963639,11.412925,,,NSR:StopPlace:45468,,700,
NSR:Quay:101941,Mørkvedvegen,64.081714,11.357554,,,NSR:StopPlace:59884,,700,
NSR:Quay:101942,Nedre-Grøtan,64.148822,11.763061,,,NSR:StopPlace:59885,,700,
NSR:Quay:102047,Stjørdal stasjon,63.469914,10.913713,,,NSR:StopPlace:44483,,700,1 AtB/til Trondheim
NSR:Quay:102377,Nordbygdvegen,64.175066,11.790106,,,NSR:StopPlace:60076,,,
NSR:Quay:102402,Øverbylykkja,63.430251,10.172691,,,NSR:StopPlace:60102,,700,
NSR:Quay:102403,Øverbylykkja,63.430284,10.173184,,,NSR:StopPlace:60102,,700,
NSR:Quay:102407,Brekkåsen skole,63.269736,10.231568,,,NSR:StopPlace:60114,,700,
NSR:Quay:102408,Brokalykkja,63.158321,10.174847,,,NSR:StopPlace:60115,,700,
NSR:Quay:102409,Brokalykkja,63.158069,10.177079,,,NSR:StopPlace:60115,,700,
NSR:Quay:102410,Hjultjønna,63.149472,10.153384,,,NSR:StopPlace:60116,,700,
NSR:Quay:102411,Hjultjønna,63.149470,10.153570,,,NSR:StopPlace:60116,,700,
NSR:Quay:102412,Holemsgjerdet,63.262279,10.224473,,,NSR:StopPlace:60117,,700,
NSR:Quay:102413,Hollum vegkryss,63.262211,10.228577,,,NSR:StopPlace:60118,,700,
NSR:Quay:102414,Hollum vegkryss,63.261900,10.228680,,,NSR:StopPlace:60118,,700,
NSR:Quay:102415,Kregnes,63.237545,10.244335,,,NSR:StopPlace:60119,,700,
NSR:Quay:102416,Kregnes,63.237537,10.244464,,,NSR:StopPlace:60119,,700,
NSR:Quay:102417,Lete,63.260260,10.214830,,,NSR:StopPlace:60120,,700,
NSR:Quay:102418,Lundamo skole,63.150530,10.291420,,,NSR:StopPlace:60121,,700,
NSR:Quay:102419,Sjetnan,63.245734,10.222843,,,NSR:StopPlace:60122,,700,
NSR:Quay:102420,Sjetnan,63.245910,10.223190,,,NSR:StopPlace:60122,,700,
NSR:Quay:102477,Geisnes ferjekai,64.816057,11.625445,,,NSR:StopPlace:60145,,1000,
NSR:Quay:102595,Eldavegen,64.119272,11.315709,,,NSR:StopPlace:60182,,700,
NSR:Quay:102596,Følling barnehage,64.109548,11.569848,,,NSR:StopPlace:60183,,700,
NSR:Quay:102598,Myrtun,64.115200,11.441380,,,NSR:StopPlace:60185,,700,
NSR:Quay:102599,Rein,64.050590,11.579550,,,NSR:StopPlace:60186,,700,
NSR:Quay:102600,Reitlostubben,64.101734,11.642375,,,NSR:StopPlace:60187,,700,
NSR:Quay:102601,Reitlovegen,64.107919,11.663028,,,NSR:StopPlace:60188,,700,
NSR:Quay:102604,Skillegrind bru,63.976283,11.924047,,,NSR:StopPlace:60191,,700,
NSR:Quay:102605,Slettvolvegen,64.103358,11.436863,,,NSR:StopPlace:60192,,700,
NSR:Quay:102606,Sparbu stasjon,63.918960,11.429233,,,NSR:StopPlace:60193,,700,
NSR:Quay:102608,Sveian,64.103469,11.505657,,,NSR:StopPlace:60194,,700,
NSR:Quay:102629,Tørring snuplass,64.145688,11.281588,,,NSR:StopPlace:60209,,700,
NSR:Quay:102630,Valløyvegen,64.136976,11.912227,,,NSR:StopPlace:60210,,700,
NSR:Quay:102631,Vanebo,64.140118,11.240256,,,NSR:StopPlace:60211,,700,
NSR:Quay:102632,Vestvika,64.098984,11.382852,,,NSR:StopPlace:60212,,700,
NSR:Quay:102713,Dyre Halses gate,63.436929,10.414409,,,NSR:StopPlace:60253,,700,
NSR:Quay:102714,Dyre Halses gate,63.437025,10.413972,,,NSR:StopPlace:60253,,700,
NSR:Quay:102716,Ratesvingen,63.387853,10.399303,,,NSR:StopPlace:60254,,700,
NSR:Quay:102719,Hesthagen,63.416799,10.397200,,,NSR:StopPlace:41620,,700,
NSR:Quay:102720,Lerkendal,63.411740,10.399045,i Holtermanns vei ut av sentrum,,NSR:StopPlace:60257,,700,
NSR:Quay:102721,Østre Lund,63.350453,10.331402,Metrostasjon til og fra sentrum,,NSR:StopPlace:60258,,700,
NSR:Quay:102722,Anders Søyseths veg,63.432493,10.510649,,,NSR:StopPlace:60259,,700,
NSR:Quay:102723,Anders Søyseths veg,63.432600,10.510365,,,NSR:StopPlace:60259,,700,
NSR:Quay:102724,Strindfjordvegen,63.434843,10.505357,,,NSR:StopPlace:60260,,700,
NSR:Quay:102725,Strindfjordvegen,63.435653,10.504904,,,NSR:StopPlace:60260,,700,
NSR:Quay:102726,Skonnertvegen,63.433588,10.508181,,,NSR:StopPlace:60261,,700,
NSR:Quay:102727,Torgardstrøa,63.330804,10.367840,,,NSR:StopPlace:60262,,700,
NSR:Quay:102728,Torgardstrøa,63.330369,10.367923,,,NSR:StopPlace:60262,,700,
NSR:Quay:102729,Hallset,63.394090,10.367062,,,NSR:StopPlace:42624,,700,
NSR:Quay:102730,Østre Berg,63.415120,10.431328,Ligger i Jonsvannsveien fra sentrum,,NSR:StopPlace:42528,,700,
NSR:Quay:102731,Skovgård,63.429427,10.495908,Ligger i Grilstadvegen,,NSR:StopPlace:42315,,700,
NSR:Quay:102732,Skovgård,63.429671,10.493327,,,NSR:StopPlace:42315,,700,
NSR:Quay:102733,Tonstadkrysset,63.370767,10.382265,foran Tonstadkrysset 2,,NSR:StopPlace:61276,,700,
NSR:Quay:102734,Arnt Smistads veg,63.395831,10.355797,Ligger i O.J. Aalmos veg fra Hallset,,NSR:StopPlace:43502,,700,
NSR:Quay:102735,Grøset søndre,63.441363,10.196187,,,NSR:StopPlace:60265,,700,
NSR:Quay:102736,Sigrid Saxedatters veg,63.433340,10.598052,,,NSR:StopPlace:60266,,700,
NSR:Quay:102737,Sigrid Saxedatters veg,63.433209,10.598537,,,NSR:StopPlace:60266,,700,
NSR:Quay:102738,Saksvikkorsen,63.433164,10.593631,,,NSR:StopPlace:60267,,700,
NSR:Quay:102739,Saksvikkorsen,63.433100,10.593669,,,NSR:StopPlace:60267,,700,
NSR:Quay:102740,Stibakken,63.433857,10.605202,,,NSR:StopPlace:60268,,700,
NSR:Quay:102741,Stibakken,63.434057,10.604733,,,NSR:StopPlace:60268,,700,
NSR:Quay:102742,Kleiva,63.416559,10.666389,,,NSR:StopPlace:60269,,700,
NSR:Quay:102743,Bedehuset,63.424328,10.673628,,,NSR:StopPlace:60270,,700,
NSR:Quay:102749,Olav Kyrres gate,63.420817,10.395515,,,NSR:StopPlace:60273,,700,
NSR:Quay:102750,Olav Kyrres gate,63.420689,10.395097,,,NSR:StopPlace:60273,,700,
NSR:Quay:102751,Høvik,64.053569,10.078033,,,NSR:StopPlace:42057,,700,
NSR:Quay:102761,Romstad bomstasjon,64.329921,11.545122,,,NSR:StopPlace:60280,,700,
NSR:Quay:103007,Buran,63.436276,10.424855,i Innherredsveien ut av sentrum,,NSR:StopPlace:60447,,700,
NSR:Quay:103008,Buran,63.437122,10.426835,i Mellomveien ved Lamoparken,,NSR:StopPlace:60447,,700,
NSR:Quay:103009,Buran,63.436277,10.422565,i Innherredsveien mot sentrum,,NSR:StopPlace:60447,,700,
NSR:Quay:103021,Akset,63.877416,11.285325,,,NSR:StopPlace:60456,,700,
NSR:Quay:103022,Ausa,63.814163,11.625600,,,NSR:StopPlace:60457,,700,
NSR:Quay:103026,Berre,64.246329,11.208855,,,NSR:StopPlace:60459,,700,
NSR:Quay:103027,Berre,64.245484,11.209115,,,NSR:StopPlace:60459,,700,
NSR:Quay:103028,Bjørhusdal,64.918348,13.079234,,,NSR:StopPlace:60460,,700,
NSR:Quay:103029,Bjørkamoen,64.468726,12.130054,,,NSR:StopPlace:60461,,700,
NSR:Quay:103034,Dullum,63.624990,11.087512,,,NSR:StopPlace:60465,,700,
NSR:Quay:103035,Eines,63.812378,11.209271,,,NSR:StopPlace:60466,,700,
NSR:Quay:103050,Finsås,64.209683,12.226445,,,NSR:StopPlace:60469,,700,
NSR:Quay:103051,Fiskåhaugen,64.753511,12.310132,,,NSR:StopPlace:60470,,700,
NSR:Quay:103056,Forbregd gård,63.809852,11.548693,,,NSR:StopPlace:60472,,700,
NSR:Quay:103057,Frikirka,64.475191,11.464768,,,NSR:StopPlace:44397,,700,
NSR:Quay:103064,Garstad vegdele,64.894087,10.953531,,,NSR:StopPlace:60476,,700,
NSR:Quay:103065,Gartland Gløshaugen,64.533138,12.393980,,,NSR:StopPlace:60759,,700,
NSR:Quay:103066,Østnes,63.770296,11.731255,,,NSR:StopPlace:45217,,700,
NSR:Quay:103068,Værem,64.454054,12.211496,,,NSR:StopPlace:60478,,700,
NSR:Quay:103073,Toddum,64.484684,11.480185,,,NSR:StopPlace:44406,,700,
NSR:Quay:103074,Toddum,64.485603,11.479343,,,NSR:StopPlace:44406,,700,
NSR:Quay:103075,Stadionparken,63.743645,11.295691,,,NSR:StopPlace:45158,,700,
NSR:Quay:103082,Gullvikmoen,64.473409,11.466326,,,NSR:StopPlace:44394,,700,
NSR:Quay:103084,Rinnleiret,63.765475,11.438811,,,NSR:StopPlace:45349,,700,
NSR:Quay:103085,Rinnbrua,63.767547,11.456949,,,NSR:StopPlace:45391,,700,
NSR:Quay:103090,Hildremsvegen,64.492728,11.948883,,,NSR:StopPlace:60489,,700,
NSR:Quay:103099,Hognes,64.731883,12.314727,,,NSR:StopPlace:60492,,700,
NSR:Quay:103100,Hognes,64.731800,12.315756,,,NSR:StopPlace:60492,,700,
NSR:Quay:103101,Holmen,63.780191,11.109026,,,NSR:StopPlace:60493,,700,
NSR:Quay:103102,Hovskorsen,64.658131,11.216226,,,NSR:StopPlace:60494,,700,
NSR:Quay:103103,Hovskorsen,64.658116,11.216561,,,NSR:StopPlace:60494,,700,
NSR:Quay:103104,Høylandet skole,64.624599,12.292323,,,NSR:StopPlace:60495,,700,
NSR:Quay:103106,Ingelsvatnet,64.665993,13.495406,,,NSR:StopPlace:60497,,700,
NSR:Quay:103110,Kluksbakkan,63.803640,11.814297,,,NSR:StopPlace:60499,,700,
NSR:Quay:103111,Kolvereid,64.862702,11.597008,,,NSR:StopPlace:45949,,700,
NSR:Quay:103117,Kvernmovegen,63.754961,11.764711,,,NSR:StopPlace:60500,,700,
NSR:Quay:103118,Kvithammer,63.490589,10.884160,,,NSR:StopPlace:44198,,700,
NSR:Quay:103121,Mulelia,63.760791,11.406228,,,NSR:StopPlace:45343,,700,
NSR:Quay:103138,Markabygda montessoriskole,63.637662,11.278525,,,NSR:StopPlace:46013,,700,
NSR:Quay:103140,Rye skole,63.418930,10.145946,ved skoleplassen.,,NSR:StopPlace:41836,,700,
NSR:Quay:103141,Væresbakken,63.430731,10.584568,Ligger i Væresvegen mot sentrum,,NSR:StopPlace:61360,,700,
NSR:Quay:103142,Bratsberg skole,63.349691,10.480308,,,NSR:StopPlace:60517,,700,
NSR:Quay:103143,Nypvang skole,63.331648,10.299221,,,NSR:StopPlace:60518,,700,
NSR:Quay:103144,Høyeggen snuplass,63.286581,10.295764,,,NSR:StopPlace:60519,,700,
NSR:Quay:103145,Sørborgen skole,63.305472,10.465878,,,NSR:StopPlace:60520,,700,
NSR:Quay:103146,Hallvardsplassen,63.340150,10.794365,,,NSR:StopPlace:60521,,700,
NSR:Quay:103147,Modalen,63.399675,10.793324,,,NSR:StopPlace:60522,,700,
NSR:Quay:103148,Modalen,63.399682,10.793555,,,NSR:StopPlace:60522,,700,
NSR:Quay:103149,Grindbakken,63.397396,10.789669,,,NSR:StopPlace:60523,,700,
NSR:Quay:103150,Grindbakken,63.397491,10.789985,,,NSR:StopPlace:60523,,700,
NSR:Quay:103151,Fossmo,63.375649,10.766937,,,NSR:StopPlace:60524,,700,
NSR:Quay:103152,Fossmo,63.375941,10.766940,,,NSR:StopPlace:60524,,700,
NSR:Quay:103153,Storbergveien,63.402052,10.794781,,,NSR:StopPlace:60525,,700,
NSR:Quay:103154,Storbergveien,63.402195,10.794888,,,NSR:StopPlace:60525,,700,
NSR:Quay:103155,Buås,63.392783,10.782885,,,NSR:StopPlace:60526,,700,
NSR:Quay:103156,Buås,63.392705,10.782515,,,NSR:StopPlace:60526,,700,
NSR:Quay:103157,Fosslidalen,63.380866,10.771041,,,NSR:StopPlace:60527,,700,
NSR:Quay:103158,Fosslidalen,63.380791,10.771025,,,NSR:StopPlace:60527,,700,
NSR:Quay:103159,Fossen gård,63.378875,10.772191,,,NSR:StopPlace:60528,,700,
NSR:Quay:103160,Fossen gård,63.378827,10.772044,,,NSR:StopPlace:60528,,700,
NSR:Quay:103161,Verket,63.350954,10.773326,,,NSR:StopPlace:60529,,700,
NSR:Quay:103162,Hallvardsplassen,63.340016,10.794199,,,NSR:StopPlace:60521,,700,
NSR:Quay:103176,Veglonesset,64.490471,11.928927,,,NSR:StopPlace:60536,,700,
NSR:Quay:103177,Sykehuset Levanger,63.741710,11.289603,,,NSR:StopPlace:45257,,700,
NSR:Quay:103179,Langmyrvegen,64.470467,11.824119,,,NSR:StopPlace:60537,,700,
NSR:Quay:103180,Langneset,64.852794,11.244154,,,NSR:StopPlace:60538,,700,
NSR:Quay:103181,Lauvsnes skole,64.497618,10.907785,,,NSR:StopPlace:46685,,700,
NSR:Quay:103182,Lein,63.812467,11.533477,,,NSR:StopPlace:45569,,700,
NSR:Quay:103183,Rønningen,63.653265,10.254782,,,NSR:StopPlace:44823,,700,
NSR:Quay:103186,Litldal,64.906570,13.057136,,,NSR:StopPlace:60540,,700,
NSR:Quay:103187,Lundemo,64.181796,13.732390,,,NSR:StopPlace:60541,,700,
NSR:Quay:103188,Namdalseid skole,64.240690,11.209560,,,NSR:StopPlace:60542,,700,
NSR:Quay:103189,Ner-Veglo,64.488426,11.924372,,,NSR:StopPlace:60543,,700,
NSR:Quay:103190,Nesset,63.877048,11.600761,,,NSR:StopPlace:45401,,700,
NSR:Quay:103191,Nordgård,63.741286,11.360480,,,NSR:StopPlace:60544,,700,
NSR:Quay:103192,Nordtun,63.756092,11.387798,,,NSR:StopPlace:60545,,700,
NSR:Quay:103193,Osnebben,63.792754,11.075431,,,NSR:StopPlace:60546,,700,
NSR:Quay:103194,Overhalla betong,64.519123,12.019212,,,NSR:StopPlace:60547,,700,
NSR:Quay:103196,Ressemveien,64.077912,11.230983,,,NSR:StopPlace:60549,,700,
NSR:Quay:103197,Ressemveien,64.078001,11.231088,,,NSR:StopPlace:60549,,700,
NSR:Quay:103198,Rettan,63.627682,11.113333,,,NSR:StopPlace:60550,,700,
NSR:Quay:103200,Rossetnes,64.522449,12.414991,,,NSR:StopPlace:60552,,700,
NSR:Quay:103202,Rørvik,64.862239,11.238703,,,NSR:StopPlace:60554,,700,
NSR:Quay:103204,Røvik,63.766114,11.045801,,,NSR:StopPlace:60555,,700,
NSR:Quay:103206,Selnes snuplass,64.434876,11.411642,,,NSR:StopPlace:60557,,700,
NSR:Quay:103207,Sendesaune,63.823642,11.670935,,,NSR:StopPlace:60558,,700,
NSR:Quay:103208,Sitter,64.530999,10.977080,,,NSR:StopPlace:60559,,700,
NSR:Quay:103211,Storvold kai,64.839613,11.220768,,,NSR:StopPlace:60561,,700,
NSR:Quay:103213,Sundsnesvegen,63.867098,11.296810,,,NSR:StopPlace:60562,,700,
NSR:Quay:103214,Søråsen,64.969825,13.552789,,,NSR:StopPlace:60563,,700,
NSR:Quay:103215,Torvstrøvegen,64.459938,11.801692,,,NSR:StopPlace:60564,,700,
NSR:Quay:103216,Tverråsveien,64.093543,11.231788,,,NSR:StopPlace:60565,,700,
NSR:Quay:103217,Tverråsveien,64.093599,11.230932,,,NSR:StopPlace:60565,,700,
NSR:Quay:103218,Tømmervold,64.551212,12.111362,,,NSR:StopPlace:60566,,700,
NSR:Quay:103219,Tømte,63.869992,11.217014,,,NSR:StopPlace:60567,,700,
NSR:Quay:103220,Vang,65.010325,13.254647,,,NSR:StopPlace:60568,,700,
NSR:Quay:103221,Vang,65.010030,13.254778,,,NSR:StopPlace:60568,,700,
NSR:Quay:103223,Overhalla Montessoriskole,64.464218,12.055752,,,NSR:StopPlace:60570,,700,
NSR:Quay:103224,Nordaunet vegdele,64.915837,11.196451,,,NSR:StopPlace:60571,,700,
NSR:Quay:103271,Angardsbrua,62.666203,9.210692,,,NSR:StopPlace:60580,,700,
NSR:Quay:103274,Børøysund,63.569631,9.187743,,,NSR:StopPlace:60581,,700,
NSR:Quay:103275,Børøysund,63.569696,9.187974,,,NSR:StopPlace:60581,,700,
NSR:Quay:103276,Dragset,62.931892,10.161841,,,NSR:StopPlace:60582,,700,
NSR:Quay:103277,Drivdalen skole,62.533213,9.616014,,,NSR:StopPlace:60583,,700,
NSR:Quay:103278,Dypfest ferjeleie,63.780313,9.576961,,,NSR:StopPlace:60584,,700,
NSR:Quay:103279,Dyrøy,63.798489,8.682053,,,NSR:StopPlace:43525,,700,
NSR:Quay:103280,Geita,63.429809,9.965147,,,NSR:StopPlace:60585,,700,
NSR:Quay:103281,Havdal,62.764188,9.970538,,,NSR:StopPlace:60586,,700,
NSR:Quay:103282,Havdal,62.764176,9.970358,,,NSR:StopPlace:60586,,700,
NSR:Quay:103283,Hemnskjela oppvekstsenter,63.493629,9.131889,,,NSR:StopPlace:60587,,700,
NSR:Quay:103284,Hofsetnesset,63.191331,8.856088,,,NSR:StopPlace:60588,,700,
NSR:Quay:103285,Hofsetnesset,63.191218,8.857024,,,NSR:StopPlace:60588,,700,
NSR:Quay:103288,Håggår,62.607263,9.625614,,,NSR:StopPlace:60589,,700,
NSR:Quay:103289,Håggår,62.607379,9.625370,,,NSR:StopPlace:60589,,700,
NSR:Quay:103290,Jystadmyran,63.268925,10.008446,,,NSR:StopPlace:60590,,700,
NSR:Quay:103293,Kjøra boligfelt,63.416877,9.960203,,,NSR:StopPlace:60591,,700,
NSR:Quay:103295,Krossvegen,62.570304,9.647316,,,NSR:StopPlace:60592,,700,
NSR:Quay:103296,Krossvegen,62.570317,9.647107,,,NSR:StopPlace:60592,,700,
NSR:Quay:103299,Landlaupet,62.637217,9.301260,,,NSR:StopPlace:60594,,700,
NSR:Quay:103300,Landlaupet,62.637381,9.301469,,,NSR:StopPlace:60594,,700,
NSR:Quay:103304,Lønset kirke,62.587693,9.345530,,,NSR:StopPlace:60596,,700,
NSR:Quay:103305,Lønset kirke,62.587608,9.345616,,,NSR:StopPlace:60596,,700,
NSR:Quay:103306,Lønset,62.583277,9.343805,,,NSR:StopPlace:42378,,700,
NSR:Quay:103307,Moe kirke,63.187545,9.764520,Parkeringsplass,,NSR:StopPlace:42702,,700,
NSR:Quay:103308,Ner Mørreaunet,63.911171,10.248297,,,NSR:StopPlace:60597,,700,
NSR:Quay:103310,Ordførarvegen,62.612845,9.519967,,,NSR:StopPlace:60598,,700,
NSR:Quay:103311,Ordførarvegen,62.612809,9.519484,,,NSR:StopPlace:60598,,700,
NSR:Quay:103312,Pålsplass,62.708213,10.032521,,,NSR:StopPlace:60599,,700,
NSR:Quay:103313,Reksa,63.645902,9.169583,,,NSR:StopPlace:41693,,700,
NSR:Quay:103314,Rislivegen,62.513790,9.603590,,,NSR:StopPlace:60601,,700,
NSR:Quay:103315,Rislivegen,62.514523,9.605607,,,NSR:StopPlace:60601,,700,
NSR:Quay:103318,Risløkkja,62.516068,9.606924,,,NSR:StopPlace:60602,,700,
NSR:Quay:103319,Risløkkja,62.516190,9.607262,,,NSR:StopPlace:60602,,700,
NSR:Quay:103320,Rømma,63.984850,10.457689,,,NSR:StopPlace:60604,,700,
NSR:Quay:103321,Sildrevegen,62.594022,9.673985,,,NSR:StopPlace:60605,,700,
NSR:Quay:103322,Sildrevegen,62.593825,9.674846,,,NSR:StopPlace:60605,,700,
NSR:Quay:103323,Skredavegen,62.499154,9.588583,,,NSR:StopPlace:60606,,700,
NSR:Quay:103324,Skruen,62.598542,9.427291,,,NSR:StopPlace:60607,,700,
NSR:Quay:103325,Skruen,62.598544,9.427010,,,NSR:StopPlace:60607,,700,
NSR:Quay:103326,Slættbakken,62.573126,9.409763,,,NSR:StopPlace:60608,,700,
NSR:Quay:103327,Snøvesvegen,62.571007,9.626236,,,NSR:StopPlace:60609,,700,
NSR:Quay:103328,Snøvesvegen,62.570992,9.626003,,,NSR:StopPlace:60609,,700,
NSR:Quay:103329,Stavneslia,63.425419,8.844968,,,NSR:StopPlace:60610,,700,
NSR:Quay:103330,Svarthaugsætra,62.591452,9.548688,,,NSR:StopPlace:60611,,700,
NSR:Quay:103331,Svarthaugsætra,62.591696,9.549853,,,NSR:StopPlace:60611,,700,
NSR:Quay:103332,Sør-Dyrøy,63.784624,8.653158,,,NSR:StopPlace:60612,,700,
NSR:Quay:103333,Sørsto,62.519570,9.608526,,,NSR:StopPlace:60613,,700,
NSR:Quay:103334,Sørsto,62.519390,9.608703,,,NSR:StopPlace:60613,,700,
NSR:Quay:103335,Ulsberg,62.747602,9.983005,,,NSR:StopPlace:60614,,700,
NSR:Quay:103336,Ulsberg,62.747611,9.983268,,,NSR:StopPlace:60614,,700,
NSR:Quay:103337,Utigard,63.197514,9.574309,,,NSR:StopPlace:60615,,700,
NSR:Quay:103338,Vasslia,63.221364,9.626783,,,NSR:StopPlace:60616,,700,
NSR:Quay:103339,Væresletta,63.430722,10.570127,,,NSR:StopPlace:60617,,700,
NSR:Quay:103340,Væresletta,63.430755,10.569534,,,NSR:StopPlace:60617,,700,
NSR:Quay:103341,Være,63.430277,10.565436,,,NSR:StopPlace:42380,,700,
NSR:Quay:103342,Øvre Sætrum,62.541831,9.603574,,,NSR:StopPlace:60618,,700,
NSR:Quay:103343,Øya vgs.,63.236423,10.276438,,,NSR:StopPlace:42557,,700,
NSR:Quay:103344,Åsheim,62.952217,10.217205,,,NSR:StopPlace:60620,,700,
NSR:Quay:103345,Åsheim,62.952297,10.217258,,,NSR:StopPlace:60620,,700,
NSR:Quay:103346,Korsvegen,63.729813,10.359853,,,NSR:StopPlace:43311,,700,
NSR:Quay:103347,Håggåvegen,62.556309,9.634865,,,NSR:StopPlace:60621,,700,
NSR:Quay:103348,Håggåvegen,62.556203,9.635039,,,NSR:StopPlace:60621,,700,
NSR:Quay:103364,Valset ferjekai,63.638366,9.687460,,,NSR:StopPlace:42031,,700,
NSR:Quay:103391,Spillum vegdele,64.439666,11.512415,,,NSR:StopPlace:44339,,700,
NSR:Quay:103392,Øyan,63.371759,11.813910,,,NSR:StopPlace:60625,,700,
NSR:Quay:103394,Øyan,63.371790,11.814007,,,NSR:StopPlace:60625,,700,
NSR:Quay:103395,Svartåsen,63.403781,11.750645,,,NSR:StopPlace:60626,,700,
NSR:Quay:103396,Aunvegen,63.436654,10.917406,,,NSR:StopPlace:60627,,700,
NSR:Quay:103397,Aunvegen,63.436405,10.916647,,,NSR:StopPlace:60627,,700,
NSR:Quay:103398,Bangvegen,63.495555,11.081168,,,NSR:StopPlace:60628,,700,
NSR:Quay:103399,Dalsnes bru sør,63.485157,11.287623,,,NSR:StopPlace:60629,,700,
NSR:Quay:103400,Fagerhaugveien,63.509465,10.847237,,,NSR:StopPlace:60630,,700,
NSR:Quay:103401,Fagerhaugveien,63.509641,10.847795,,,NSR:StopPlace:60630,,700,
NSR:Quay:103404,Sluppen,63.401911,10.395818,,,NSR:StopPlace:61282,,700,
NSR:Quay:103406,Haugåsvoll,63.478919,11.324008,,,NSR:StopPlace:60633,,700,
NSR:Quay:103410,Mobjørg,63.499736,11.353327,,,NSR:StopPlace:60636,,700,
NSR:Quay:103411,Nygård,63.524606,10.845630,,,NSR:StopPlace:60638,,700,
NSR:Quay:103436,Sørsidevegen,63.447515,10.954694,,,NSR:StopPlace:60642,,700,
NSR:Quay:103437,Sørsidevegen,63.447398,10.954750,,,NSR:StopPlace:60642,,700,
NSR:Quay:103438,Tillervegen,63.528422,10.839893,,,NSR:StopPlace:60643,,700,
NSR:Quay:103439,Velvang østre,63.476145,10.812789,,,NSR:StopPlace:60644,,700,
NSR:Quay:103441,Fjølvika,63.584426,10.189255,,,NSR:StopPlace:44857,,700,
NSR:Quay:103443,Seierstad ferjekai,64.637520,11.346082,,,NSR:StopPlace:60646,,1000,
NSR:Quay:103446,Svanemsvatnet,63.382307,8.951679,,,NSR:StopPlace:60647,,700,
NSR:Quay:103447,Svanemsvatnet,63.382213,8.951307,,,NSR:StopPlace:60647,,700,
NSR:Quay:103448,Dyrøy kai,63.799241,8.681299,,,NSR:StopPlace:60419,,1000,
NSR:Quay:103449,Mausundvær kai,63.869136,8.662084,,,NSR:StopPlace:42477,,1000,
NSR:Quay:103450,Sula ferjekai,63.849569,8.500620,,,NSR:StopPlace:42924,,1000,
NSR:Quay:103451,Sørburøy hurtigbåtkai,63.978611,9.071134,,,NSR:StopPlace:42925,,1000,
NSR:Quay:103452,Rørvik ferjekai,63.509519,10.138163,,,NSR:StopPlace:41908,,700,
NSR:Quay:103453,Hevle,62.566698,9.645889,,,NSR:StopPlace:60648,,700,
NSR:Quay:103454,Hevle,62.566153,9.645240,,,NSR:StopPlace:60648,,700,
NSR:Quay:103455,Jamt,62.681451,11.392063,,,NSR:StopPlace:43042,,700,
NSR:Quay:103456,Børsa,63.326156,10.069833,,,NSR:StopPlace:44002,,700,
NSR:Quay:103457,Buvikkrysset E39,63.306651,10.173957,,,NSR:StopPlace:43965,,700,
NSR:Quay:103458,Hegramo,63.464110,11.112974,,,NSR:StopPlace:44738,,700,
NSR:Quay:103469,Vanvikan fabrikker,63.555018,10.247613,,,NSR:StopPlace:60650,,700,
NSR:Quay:103470,Hjelmstadbakk gård,63.613546,11.352479,,,NSR:StopPlace:60651,,700,
NSR:Quay:103473,Langøra,64.289033,11.196871,,,NSR:StopPlace:46331,,700,
NSR:Quay:103474,Åshøgda,64.219884,11.222293,,,NSR:StopPlace:60653,,700,
NSR:Quay:103475,Ånes,64.435212,13.462029,,,NSR:StopPlace:60654,,700,
NSR:Quay:103476,Bøgset,64.213579,11.196962,,,NSR:StopPlace:60655,,700,
NSR:Quay:103477,Børskrysset,63.321358,10.061419,,,NSR:StopPlace:60656,,700,
NSR:Quay:103486,Namsos ungdomsskole,64.470235,11.512206,,,NSR:StopPlace:45879,,700,
NSR:Quay:103489,Vanvikan,63.553442,10.222953,,,NSR:StopPlace:44802,,700,
NSR:Quay:103492,Breidli,63.616124,10.233268,,,NSR:StopPlace:44834,,700,
NSR:Quay:103493,Omundvågen,63.633469,10.265613,,,NSR:StopPlace:44838,,700,
NSR:Quay:103494,Roten,63.593850,10.206047,,,NSR:StopPlace:44849,,700,
NSR:Quay:103495,Roten,63.593803,10.206143,,,NSR:StopPlace:44849,,700,
NSR:Quay:103496,Keiseråsen,63.575042,10.168844,,,NSR:StopPlace:44852,,700,
NSR:Quay:103497,Kleivavegen,63.551896,10.207219,,,NSR:StopPlace:44995,,700,
NSR:Quay:103498,Vollakrysset,63.548502,10.201641,,,NSR:StopPlace:44998,,700,
NSR:Quay:103501,Klepparvegen,64.035859,11.550780,,,NSR:StopPlace:45414,,700,
NSR:Quay:103502,Campus Guldbergaunet,64.020936,11.513583,,,NSR:StopPlace:45416,,700,
NSR:Quay:103503,Vandbakk,63.758493,10.453126,,,NSR:StopPlace:45702,,700,
NSR:Quay:103504,Ørsjødalen,63.773863,10.485898,,,NSR:StopPlace:45922,,700,
NSR:Quay:103505,Erstad,63.777322,11.063042,,,NSR:StopPlace:60666,,700,
NSR:Quay:103506,Erstad,63.777418,11.063629,,,NSR:StopPlace:60666,,700,
NSR:Quay:103507,Fossli vegdele,64.261534,11.197134,,,NSR:StopPlace:46320,,700,
NSR:Quay:103509,Eidshaug ferjekai,64.932306,11.464123,,,NSR:StopPlace:45893,,1000,
NSR:Quay:103511,Hofles ferjekai,64.827431,11.612391,,,NSR:StopPlace:60143,,1000,
NSR:Quay:103512,Løkken,62.907029,10.240213,,,NSR:StopPlace:60667,,700,
NSR:Quay:103513,Løkken,62.907035,10.240339,,,NSR:StopPlace:60667,,700,
NSR:Quay:103514,Rokkonesløkka,62.862947,9.829145,,,NSR:StopPlace:60668,,700,
NSR:Quay:103515,Rokkonesløkka,62.862653,9.829140,,,NSR:StopPlace:60668,,700,
NSR:Quay:103516,Hetling,62.973261,10.552588,,,NSR:StopPlace:60669,,700,
NSR:Quay:103517,Hetling,62.973187,10.552052,,,NSR:StopPlace:60669,,700,
NSR:Quay:103520,Sunnan,64.082343,11.636485,,,NSR:StopPlace:45588,,700,
NSR:Quay:103522,Marienborg stasjon,63.418820,10.382110,,,NSR:StopPlace:42437,,700,
NSR:Quay:103546,Sagveien,63.405658,11.741045,,,NSR:StopPlace:60683,,700,
NSR:Quay:103547,Dronningens gate 62,63.431530,10.388027,,,NSR:StopPlace:60684,,900,
NSR:Quay:103576,Hospitalskirka,63.430358,10.385092,,,NSR:StopPlace:60697,,900,
NSR:Quay:103577,Hospitalskirka,63.430230,10.382971,,,NSR:StopPlace:60697,,900,
NSR:Quay:103580,Paul Skolemesters veg,63.369630,10.394458,,,NSR:StopPlace:43670,,700,
NSR:Quay:103581,Bakken snuplass,63.367020,10.759802,,,NSR:StopPlace:60700,,700,
NSR:Quay:103582,Ingelsvatnet vestre,64.666375,13.485782,,,NSR:StopPlace:60701,,700,
NSR:Quay:103583,Løvmo,65.032647,13.273723,,,NSR:StopPlace:60702,,700,
NSR:Quay:103687,Grøset søndre,63.441639,10.195439,,,NSR:StopPlace:60265,,700,
NSR:Quay:103894,Strømnes,64.096519,11.326880,,,NSR:StopPlace:60840,,700,
NSR:Quay:103895,Østvik,64.096196,11.383520,,,NSR:StopPlace:60841,,700,
NSR:Quay:104110,Ila,63.429281,10.368342,,,NSR:StopPlace:60889,,900,
NSR:Quay:104111,Ila,63.429267,10.367671,,,NSR:StopPlace:60889,,900,
NSR:Quay:104112,Skansen,63.429731,10.371861,,,NSR:StopPlace:60891,,900,
NSR:Quay:104113,Skansen,63.430071,10.373602,,,NSR:StopPlace:60891,,900,
NSR:Quay:104280,Lauvåsen,63.351410,10.243673,,,NSR:StopPlace:60947,,700,
NSR:Quay:104281,Øsbyvegen,63.053684,11.674969,,,NSR:StopPlace:60948,,700,
NSR:Quay:104283,Setra,63.131799,8.235932,,,NSR:StopPlace:60950,,700,
NSR:Quay:104284,Setra,63.131770,8.235881,,,NSR:StopPlace:60950,,700,
NSR:Quay:104285,Glomsmyran,63.122354,8.336029,,,NSR:StopPlace:60951,,700,
NSR:Quay:104286,Steinkjer stasjon,64.012286,11.495503,,,NSR:StopPlace:45423,,700,
NSR:Quay:104287,Steinkjer stasjon,64.011878,11.496023,,,NSR:StopPlace:45423,,700,
NSR:Quay:104288,Steinkjer stasjon,64.011724,11.496264,,,NSR:StopPlace:45423,,700,
NSR:Quay:104289,Steinkjer stasjon,64.011563,11.496500,,,NSR:StopPlace:45423,,700,
NSR:Quay:104290,Steinkjer stasjon,64.011390,11.496755,,,NSR:StopPlace:45423,,700,
NSR:Quay:104291,Steinkjer stasjon,64.011223,11.496986,,,NSR:StopPlace:45423,,700,
NSR:Quay:104385,Solbakken,64.092262,11.346924,,,NSR:StopPlace:61001,,700,
NSR:Quay:104388,Florbekken,63.459918,11.402653,,,NSR:StopPlace:61003,,700,
NSR:Quay:104452,Kvålskroken,63.235852,9.760596,,,NSR:StopPlace:42650,,700,
NSR:Quay:104453,Best Vormstad,63.196912,9.768291,,,NSR:StopPlace:61024,,700,
NSR:Quay:104454,Meåsen snuplass,63.217910,9.584080,,,NSR:StopPlace:61025,,700,
NSR:Quay:104455,Gutvik ferjekai,65.084506,11.829059,,,NSR:StopPlace:61026,,1000,
NSR:Quay:104488,Kvenvær oppvekstsenter,63.535254,8.399434,,,NSR:StopPlace:61040,,700,
NSR:Quay:104489,Kvenvær oppvekstsenter,63.535239,8.399649,,,NSR:StopPlace:61040,,700,
NSR:Quay:104514,Langengvegen,63.717521,11.234797,,,NSR:StopPlace:61055,,700,
NSR:Quay:104518,Bruenget,64.274144,11.194586,,,NSR:StopPlace:61059,,700,
NSR:Quay:104557,Krokvikvegen,63.542817,10.862257,,,NSR:StopPlace:61085,,700,
NSR:Quay:104612,Amundmoen,63.144470,9.711292,,,NSR:StopPlace:61138,,700,
NSR:Quay:104613,Amundmoen,63.144860,9.711442,,,NSR:StopPlace:61138,,700,
NSR:Quay:104614,Byagjerdet,63.221159,9.767806,,,NSR:StopPlace:61139,,700,
NSR:Quay:104615,Byagjerdet,63.221093,9.767645,,,NSR:StopPlace:61139,,700,
NSR:Quay:104616,Eybakkan,62.832653,9.981369,,,NSR:StopPlace:61140,,700,
NSR:Quay:104617,Eybakkan,62.832861,9.980934,,,NSR:StopPlace:61140,,700,
NSR:Quay:104618,Langeng gård,63.130335,9.705074,,,NSR:StopPlace:61141,,700,
NSR:Quay:104619,Langeng gård,63.130401,9.705211,,,NSR:StopPlace:61141,,700,
NSR:Quay:104620,Ljøkjel,63.208971,9.769968,,,NSR:StopPlace:61142,,700,
NSR:Quay:104621,Ljøkjel,63.209174,9.770231,,,NSR:StopPlace:61142,,700,
NSR:Quay:104622,Nordbø,62.926002,9.760465,,,NSR:StopPlace:61143,,700,
NSR:Quay:104623,Nordbø,62.925908,9.760089,,,NSR:StopPlace:61143,,700,
NSR:Quay:104625,Orkdalsveien 95,62.829771,9.991620,,,NSR:StopPlace:61144,,700,
NSR:Quay:104626,Orkdalsveien 95,62.829899,9.991309,,,NSR:StopPlace:61144,,700,
NSR:Quay:104627,Resdalsveien,62.986566,9.736057,,,NSR:StopPlace:61145,,700,
NSR:Quay:104628,Resdalsveien,62.986660,9.736140,,,NSR:StopPlace:61145,,700,
NSR:Quay:104629,Svorkmo bru,63.166453,9.740158,,,NSR:StopPlace:61146,,700,
NSR:Quay:104630,Svorkmo bru,63.167240,9.742953,,,NSR:StopPlace:61146,,700,
NSR:Quay:104631,Vollabrekka,62.868430,9.846907,,,NSR:StopPlace:61147,,700,
NSR:Quay:104632,Vollabrekka,62.869159,9.846590,,,NSR:StopPlace:61147,,700,
NSR:Quay:104646,Dållåvegen,63.261426,9.836162,,,NSR:StopPlace:61158,,700,
NSR:Quay:104647,Kvamslia,63.262299,9.828271,,,NSR:StopPlace:61159,,700,
NSR:Quay:104648,Kjenstadberget,64.193606,12.325332,,,NSR:StopPlace:61160,,700,
NSR:Quay:104649,Hegra barneskole,63.469980,11.109800,,,NSR:StopPlace:61161,,700,
NSR:Quay:104650,Hegra barneskole,63.470030,11.110030,,,NSR:StopPlace:61161,,700,
NSR:Quay:104651,Soknedal,62.945837,10.189953,,,NSR:StopPlace:61162,,700,
NSR:Quay:104652,Fjellgårdan,64.065791,11.184259,,,NSR:StopPlace:61163,,700,
NSR:Quay:104656,Tessemveien,64.092425,11.462192,,,NSR:StopPlace:61165,,700,
NSR:Quay:104678,Dronningens gate,63.431906,10.391454,over veien for Riibe Mynthandel,,NSR:StopPlace:43501,,700,
NSR:Quay:104703,Strandgata,64.862540,11.241810,,,NSR:StopPlace:61186,,700,
NSR:Quay:104705,Hølonda vegdele,63.129170,10.056770,,,NSR:StopPlace:61187,,700,
NSR:Quay:104768,Sjøvegen,63.697361,11.070922,,,NSR:StopPlace:61225,,700,
NSR:Quay:104852,Nylandet,64.871750,11.240660,,,NSR:StopPlace:61246,,700,
NSR:Quay:104853,Nylandet,64.871780,11.240430,,,NSR:StopPlace:61246,,700,
NSR:Quay:104869,Kolstad kirke,63.363451,10.342813,,,NSR:StopPlace:43276,,700,
NSR:Quay:104873,Hembre grus,63.459610,11.123172,,,NSR:StopPlace:61250,,700,
NSR:Quay:104897,Hallansvingen,63.314340,10.416370,,,NSR:StopPlace:42351,,700,
NSR:Quay:104965,Øyum gård,63.202510,9.783750,,,NSR:StopPlace:42590,,700,
NSR:Quay:105024,Stormyra,63.473170,9.406280,,,NSR:StopPlace:61299,,700,
NSR:Quay:105025,Søraunet,63.464110,9.436690,,,NSR:StopPlace:61300,,700,
NSR:Quay:105026,Sluppen Vaksinesenter,63.396080,10.395740,,,NSR:StopPlace:61417,,700,
NSR:Quay:105040,Snåsa Hotell,64.262185,12.368106,,,NSR:StopPlace:61307,,700,
NSR:Quay:105041,Snåsa Hotell,64.262252,12.367980,,,NSR:StopPlace:61307,,700,
NSR:Quay:105091,Slørdalsvatnet,63.444700,9.485730,,,NSR:StopPlace:61340,,700,
NSR:Quay:105092,Slørdalsvatnet,63.444180,9.485580,,,NSR:StopPlace:61340,,700,
NSR:Quay:105196,Klettgjerdet,62.640520,9.555200,,,NSR:StopPlace:61394,,700,
NSR:Quay:105197,Klettgjerdet,62.640440,9.555040,,,NSR:StopPlace:61394,,700,
NSR:Quay:105198,Stensesvegen,62.627380,9.559400,,,NSR:StopPlace:61395,,700,
NSR:Quay:105199,Stensesvegen,62.627110,9.559610,,,NSR:StopPlace:61395,,700,
NSR:Quay:105200,Myran Nerskogvegen,62.624890,9.562740,,,NSR:StopPlace:61396,,700,
NSR:Quay:105201,Myran Nerskogvegen,62.623870,9.563740,,,NSR:StopPlace:61396,,700,
NSR:Quay:105213,Evjevegen,63.472230,10.924940,,,NSR:StopPlace:61402,,700,
NSR:Quay:105219,Mellomskogen,63.977437,10.006925,,,NSR:StopPlace:61404,,700,
NSR:Quay:105220,Sossvika,64.049470,9.944310,,,NSR:StopPlace:61405,,700,
NSR:Quay:105221,Sossvika,64.049365,9.944408,,,NSR:StopPlace:61405,,700,
NSR:Quay:105352,Guri Kunna vgs.,63.602347,8.977002,,,NSR:StopPlace:61472,,700,
NSR:Quay:105406,Mølnåa vegdele,64.312915,11.210757,,,NSR:StopPlace:61501,,700,
NSR:Quay:105411,Korsen,64.190477,11.224999,,,NSR:StopPlace:45939,,700,
NSR:Quay:105416,Meenget vegdele,64.837330,11.373159,,,NSR:StopPlace:61506,,700,
NSR:Quay:105463,Staven,64.222548,11.201350,,,NSR:StopPlace:61526,,700,
NSR:Quay:105464,Buvarp,64.254367,11.220673,,,NSR:StopPlace:61527,,700,
NSR:Quay:105465,Buvarp,64.254318,11.220874,,,NSR:StopPlace:61527,,700,
NSR:Quay:105502,Reipvegen,63.991366,11.888808,,,NSR:StopPlace:61540,,700,
NSR:Quay:105547,Gluggfjellet,64.866570,11.243590,,,NSR:StopPlace:61564,,700,
NSR:Quay:105548,Gluggfjellet,64.866350,11.243720,,,NSR:StopPlace:61564,,700,
NSR:Quay:105549,Karl Fures vei,64.873370,11.235120,,,NSR:StopPlace:61565,,700,
NSR:Quay:105550,Karl Fures vei,64.873500,11.235030,,,NSR:StopPlace:61565,,700,
NSR:Quay:105551,Rørvik Spektrum,64.865260,11.230060,,,NSR:StopPlace:61566,,700,
NSR:Quay:105552,Rørvik Spektrum,64.865110,11.229780,,,NSR:StopPlace:61566,,700,
NSR:Quay:105582,Salater,63.797573,11.053477,,,NSR:StopPlace:61575,,700,
NSR:Quay:105584,Lyngberg,64.200406,12.179426,,,NSR:StopPlace:61577,,700,
NSR:Quay:105585,Sendesvegen,63.814265,11.635224,,,NSR:StopPlace:61578,,700,
NSR:Quay:105589,Namsos skysstasjon,64.464570,11.492870,,,NSR:StopPlace:44379,,700,
NSR:Quay:105590,Namsos skysstasjon,64.464470,11.493800,,,NSR:StopPlace:44379,,700,
NSR:Quay:105591,Tranevegen,62.584325,9.671308,,,NSR:StopPlace:61583,,700,
NSR:Quay:105593,Nedre Tunveg,62.600650,9.700730,,,NSR:StopPlace:61584,,700,
NSR:Quay:105594,Nedre Tunveg,62.600680,9.700940,,,NSR:StopPlace:61584,,700,
NSR:Quay:105609,Kokkås,64.049271,11.733350,,,NSR:StopPlace:61593,,700,
NSR:Quay:105610,Lundeveien,63.701040,8.813299,,,NSR:StopPlace:61594,,700,
NSR:Quay:105611,Nordhammarveien,63.703651,8.820114,,,NSR:StopPlace:61595,,700,
NSR:Quay:105612,Nordhammarveien,63.703653,8.819683,,,NSR:StopPlace:61595,,700,
NSR:Quay:105613,Frøya sykehjem,63.705033,8.825487,,,NSR:StopPlace:61596,,700,
NSR:Quay:105614,Frøya sykehjem,63.704930,8.825550,,,NSR:StopPlace:61596,,700,
NSR:Quay:105626,Ratvika,63.974198,9.993160,,,NSR:StopPlace:61597,,700,
NSR:Quay:105634,Geitvollen,63.973033,11.450787,,,NSR:StopPlace:61600,,700,
NSR:Quay:105667,Malmsjøvegen,63.230070,10.124080,,,NSR:StopPlace:61610,,700,
NSR:Quay:105669,Haugli,64.826100,11.388270,,,NSR:StopPlace:61611,,700,
NSR:Quay:105683,Skoglund,64.882040,13.821960,,,NSR:StopPlace:61614,,700,
NSR:Quay:105689,Lundeveien,63.701198,8.813267,,,NSR:StopPlace:61594,,700,
NSR:Quay:105697,Platten vest,64.291307,13.639628,,,NSR:StopPlace:61618,,700,
NSR:Quay:105712,Vassbygda grendahus,63.231312,10.125806,,,NSR:StopPlace:61622,,700,
NSR:Quay:105713,Vassbygda grendahus,63.231402,10.125669,,,NSR:StopPlace:61622,,700,
NSR:Quay:105741,Coop Venn,63.250970,10.053410,,,NSR:StopPlace:61640,,700,
NSR:Quay:105743,Tømret,63.608569,10.738414,,,NSR:StopPlace:61641,,700,
NSR:Quay:105762,Sundan,63.491430,9.180250,,,NSR:StopPlace:61648,,700,
NSR:Quay:105806,Fiborgtangen sør,63.707067,11.162699,,,NSR:StopPlace:61661,,700,
NSR:Quay:105807,Moa bru,63.735205,11.742244,,,NSR:StopPlace:61662,,700,
NSR:Quay:105818,Reinsvatnet,64.043465,11.581411,,,NSR:StopPlace:61669,,700,
NSR:Quay:105831,Skillegrind snuplass,63.976746,11.918787,,,NSR:StopPlace:61670,,700,
NSR:Quay:105835,Almlitrø,63.504447,11.421050,,,NSR:StopPlace:61674,,700,
NSR:Quay:105838,Bergvegen,63.295176,10.246296,,,NSR:StopPlace:61676,,700,
NSR:Quay:105840,Eggan,63.255960,9.754480,,,NSR:StopPlace:61677,,700,
NSR:Quay:105841,Eggan,63.255922,9.754902,,,NSR:StopPlace:61677,,700,
NSR:Quay:105842,Kvålsjårvegen,63.248421,9.731186,,,NSR:StopPlace:61678,,700,
NSR:Quay:105843,Buan,63.244820,9.739990,,,NSR:StopPlace:61679,,700,
NSR:Quay:105844,Gullholmsveien,64.473740,11.448700,,,NSR:StopPlace:61680,,700,
NSR:Quay:105845,Overhallsveien,64.469060,11.513990,,,NSR:StopPlace:61681,,700,
NSR:Quay:105846,Kleppen idrettspark,64.474120,11.528250,,,NSR:StopPlace:61682,,700,
NSR:Quay:105847,Svean,63.312120,9.810520,,,NSR:StopPlace:61683,,700,
NSR:Quay:105848,Svean,63.312180,9.810710,,,NSR:StopPlace:61683,,700,
NSR:Quay:105858,Frøset,62.934359,10.228813,,,NSR:StopPlace:61688,,700,
NSR:Quay:105859,Holte garasje,62.897400,10.248600,,,NSR:StopPlace:61689,,700,
NSR:Quay:105860,Tjønnan,62.875609,10.267847,,,NSR:StopPlace:61690,,700,
NSR:Quay:105861,Hogstret,62.981800,10.918380,,,NSR:StopPlace:61691,,700,
NSR:Quay:105898,Val barne- og ungdomsskole,64.783670,11.419110,,,NSR:StopPlace:61705,,700,
NSR:Quay:105899,Ågård,64.502070,13.356700,,,NSR:StopPlace:61706,,700,
NSR:Quay:105904,Storåsveien,63.019930,10.314110,,,NSR:StopPlace:61709,,700,
NSR:Quay:105917,Dalvegen,64.457160,12.205010,,,NSR:StopPlace:61716,,700,
NSR:Quay:105918,Namsenvegen,64.569180,12.519440,,,NSR:StopPlace:61717,,700,
NSR:Quay:105919,Langnes,64.459070,12.295990,,,NSR:StopPlace:61718,,700,
NSR:Quay:105926,Aunlykkja,63.434320,9.945180,,,NSR:StopPlace:61722,,700,
NSR:Quay:105927,Hammerfjell,63.435670,9.935070,,,NSR:StopPlace:61723,,700,
NSR:Quay:105932,Øysand camping,63.326320,10.215630,,,NSR:StopPlace:61726,,700,
NSR:Quay:105933,Rissa,63.585010,9.962490,,,NSR:StopPlace:61727,,700,
NSR:Quay:105953,Tveråsvegen,64.096410,11.240980,,,NSR:StopPlace:61743,,700,
NSR:Quay:106000,Volltjønna,64.653410,13.671590,,,NSR:StopPlace:61762,,700,
NSR:Quay:106060,Rein,63.514060,11.379290,,,NSR:StopPlace:61765,,700,
NSR:Quay:106084,Dælivegen,64.224410,12.407820,,,NSR:StopPlace:61778,,700,
NSR:Quay:106137,Frøvarpvegen,64.587555,11.374347,,,NSR:StopPlace:61801,,700,
NSR:Quay:106138,Risvika,64.521480,12.091304,,,NSR:StopPlace:61802,,700,
NSR:Quay:106156,Vassbygda,63.507800,11.002590,,,NSR:StopPlace:61816,,700,
NSR:Quay:106169,Gåsbakken misjonshus,63.113202,9.989410,,,NSR:StopPlace:61827,,700,
NSR:Quay:106171,Trondheim hurtigbåtterminal,63.438140,10.396320,,,NSR:StopPlace:74006,,1000,
NSR:Quay:106172,Trondheim hurtigbåtterminal,63.438186,10.396226,,,NSR:StopPlace:74006,,1000,
NSR:Quay:106178,Lauvøy ungdomshus,63.924336,9.933714,,,NSR:StopPlace:61833,,700,
NSR:Quay:106229,Gjevilvassvegen,62.653158,9.549992,,,NSR:StopPlace:61854,,700,
NSR:Quay:106252,Sunnsetlykkja,63.133674,10.093472,,,NSR:StopPlace:61855,,700,
NSR:Quay:106282,Flåskog,63.306446,9.769080,,,NSR:StopPlace:61861,,700,
NSR:Quay:106283,Flåskog,63.306276,9.768809,,,NSR:StopPlace:61861,,700,
NSR:Quay:106284,Gjølmekrysset,63.310153,9.811145,,,NSR:StopPlace:61862,,700,
NSR:Quay:106285,Gjølmekrysset,63.310073,9.811240,,,NSR:StopPlace:61862,,700,
NSR:Quay:106286,Mølnheimvegen,63.310065,9.807741,,,NSR:StopPlace:61863,,700,
NSR:Quay:106287,Mølnheimvegen,63.310150,9.807500,,,NSR:StopPlace:61863,,700,
NSR:Quay:106288,Prestmovegen,63.253790,9.797490,,,NSR:StopPlace:61864,,700,
NSR:Quay:106289,Prestmovegen,63.253750,9.797630,,,NSR:StopPlace:61864,,700,
NSR:Quay:106290,Snausen,63.287660,9.699941,,,NSR:StopPlace:61865,,700,
NSR:Quay:106291,Snausen,63.287607,9.700429,,,NSR:StopPlace:61865,,700,
NSR:Quay:106292,Steinshaugen,63.235160,9.777070,,,NSR:StopPlace:61866,,700,
NSR:Quay:106293,Steinshaugen,63.234640,9.777180,,,NSR:StopPlace:61866,,700,
NSR:Quay:106296,Kalvhåggåbekken,63.304040,9.755090,,,NSR:StopPlace:61869,,700,
NSR:Quay:106297,Kalvhåggåbekken,63.304080,9.754830,,,NSR:StopPlace:61869,,700,
NSR:Quay:106298,Fossflaten,63.289810,9.708840,,,NSR:StopPlace:61870,,700,
NSR:Quay:106299,Fossflaten,63.289930,9.709560,,,NSR:StopPlace:61870,,700,
NSR:Quay:106300,Engmovegen,63.250770,9.796720,,,NSR:StopPlace:61871,,700,
NSR:Quay:106301,Engmovegen,63.250660,9.796800,,,NSR:StopPlace:61871,,700,
NSR:Quay:106387,Saur,64.189500,11.894440,,,NSR:StopPlace:61885,,700,
NSR:Quay:106444,Lilleflor,63.460125,11.341447,,,NSR:StopPlace:61896,,700,
NSR:Quay:106506,Kongsmoen,64.884180,12.437460,,,NSR:StopPlace:61906,,700,
NSR:Quay:106517,Langmyra,63.239705,10.431449,,,NSR:StopPlace:61908,,700,
NSR:Quay:106534,Nestingvegen,63.348741,10.193829,,,NSR:StopPlace:61913,,700,
NSR:Quay:106653,Furukroken,64.216700,11.226200,,,NSR:StopPlace:61950,,700,
NSR:Quay:106754,By gård,63.427130,10.159690,,,NSR:StopPlace:61982,,700,
NSR:Quay:106755,By gård,63.427070,10.158800,,,NSR:StopPlace:61982,,700,
NSR:Quay:110093,Vellamelen,64.110825,11.389204,,,NSR:StopPlace:45800,,700,
NSR:Quay:110094,Beitstad,64.107725,11.392128,,,NSR:StopPlace:45797,,700,
NSR:Quay:110114,Mosvik skole,63.818430,11.004827,,,NSR:StopPlace:46646,,700,
NSR:Quay:110134,Coop Sistranda,63.735836,8.833068,,,NSR:StopPlace:70125,,700,
NSR:Quay:110135,Coop Sistranda,63.735764,8.832805,,,NSR:StopPlace:70125,,700,
NSR:Quay:110138,Trøakorsen,63.908377,11.190769,,,NSR:StopPlace:46551,,700,
NSR:Quay:110141,Ugla,63.400601,10.343952,,,NSR:StopPlace:41939,,900,
NSR:Quay:110181,Lundamo,63.151465,10.279982,,,NSR:StopPlace:42946,,700,
NSR:Quay:110188,Kjørsvikbugen hurtigbåtkai,63.412861,8.723905,,,NSR:StopPlace:70156,,1000,
NSR:Quay:110230,Kystmuseet,63.606442,8.968907,,,NSR:StopPlace:70196,,700,
NSR:Quay:110231,Kystmuseet,63.606578,8.966992,,,NSR:StopPlace:70196,,700,
NSR:Quay:110273,Fosslia Fjellhall,63.478288,10.931399,,,NSR:StopPlace:44411,,700,
NSR:Quay:110275,Sigurd Jarls veg,63.470612,10.935291,,,NSR:StopPlace:44441,,700,
NSR:Quay:110276,Tangen sør,63.469959,10.907916,,,NSR:StopPlace:44860,,700,02
NSR:Quay:110325,Falkberget,62.709451,11.363486,,,NSR:StopPlace:43744,,700,
NSR:Quay:110326,Mosløkkja,63.019039,10.331697,,,NSR:StopPlace:70268,,700,
NSR:Quay:110327,Tamlagsrønningen,62.869118,11.208901,,,NSR:StopPlace:70269,,700,
NSR:Quay:110328,Tamlagsrønningen,62.868930,11.209539,,,NSR:StopPlace:70269,,700,
NSR:Quay:110329,Aunøien,63.017921,10.417745,,,NSR:StopPlace:70270,,700,
NSR:Quay:110330,Nygård,62.957139,11.012039,,,NSR:StopPlace:70271,,700,
NSR:Quay:110331,Holden,62.795784,11.336138,,,NSR:StopPlace:41770,,700,
NSR:Quay:110332,Melien,62.823092,11.328015,,,NSR:StopPlace:42560,,700,
NSR:Quay:110333,Rogstadgrind,63.014149,10.358192,,,NSR:StopPlace:41767,,700,
NSR:Quay:110359,Julseth Østre,63.392310,10.984703,,,NSR:StopPlace:70296,,700,
NSR:Quay:110360,Brennmoen,63.371847,11.072840,,,NSR:StopPlace:44496,,700,
NSR:Quay:110361,Jullum,63.407896,10.939556,,,NSR:StopPlace:44806,,700,
NSR:Quay:110362,Lerbakken,63.416739,10.932475,,,NSR:StopPlace:44804,,700,
NSR:Quay:110366,Vessetvegen,63.394371,11.043631,,,NSR:StopPlace:44493,,700,
NSR:Quay:110367,Sætnan,63.394521,11.011208,,,NSR:StopPlace:44490,,700,
NSR:Quay:110368,Julan,63.410387,10.937075,,,NSR:StopPlace:70298,,700,
NSR:Quay:110369,Jullum bru,63.401405,10.945934,,,NSR:StopPlace:44486,,700,
NSR:Quay:110370,Julseth Østre,63.392378,10.984848,,,NSR:StopPlace:70296,,700,
NSR:Quay:110371,Julan,63.410594,10.936992,,,NSR:StopPlace:70298,,700,
NSR:Quay:110373,Kråkmo vegdele,63.650200,10.264449,,,NSR:StopPlace:44817,,700,
NSR:Quay:110374,Rønningen,63.653452,10.254549,,,NSR:StopPlace:44823,,700,
NSR:Quay:110376,Breidli,63.616663,10.233405,,,NSR:StopPlace:44834,,700,
NSR:Quay:110377,Keiserås vegdele,63.568467,10.177658,,,NSR:StopPlace:45006,,700,
NSR:Quay:110378,Vollakrysset,63.548642,10.201199,,,NSR:StopPlace:44998,,700,
NSR:Quay:110379,Fagerli vegdele,63.557621,10.182717,,,NSR:StopPlace:44990,,700,
NSR:Quay:110388,Melan,63.316332,8.663557,,,NSR:StopPlace:70310,,700,
NSR:Quay:110390,Melan,63.316134,8.663539,,,NSR:StopPlace:70310,,700,
NSR:Quay:110391,Olderbakken,63.313786,8.625209,,,NSR:StopPlace:41070,,700,
NSR:Quay:110393,Årvåg,63.349158,8.850599,,,NSR:StopPlace:38904,,700,
NSR:Quay:110394,Eidestranda,63.301073,8.539263,,,NSR:StopPlace:38157,,700,
NSR:Quay:110395,Våg,63.285985,8.540574,,,NSR:StopPlace:38329,,700,
NSR:Quay:116006,Moan,63.047300,9.190155,,,NSR:StopPlace:40416,,700,
NSR:Quay:116007,Langlia,63.048108,9.199878,,,NSR:StopPlace:39083,,700,
NSR:Quay:116008,Rindal,63.055216,9.211458,,,NSR:StopPlace:41497,,700,
NSR:Quay:116014,Trondheim hurtigbåtterminal,63.437948,10.396840,,,NSR:StopPlace:74006,,1000,
NSR:Quay:21401,Lade allé 73,63.440560,10.465304,,,NSR:StopPlace:4048,,700,
NSR:Quay:22719,Sverresborg,63.417195,10.353694,,,NSR:StopPlace:44041,,700,
NSR:Quay:597,Grong stasjon,64.457925,12.337288,,,NSR:StopPlace:355,1,700,02
NSR:Quay:65109,Hestnes,63.133884,8.538303,,,NSR:StopPlace:37495,,700,1
NSR:Quay:65143,Rognskog,63.084028,8.407711,,,NSR:StopPlace:37518,,700,
NSR:Quay:65177,Gjelaneset,63.340340,8.771043,,,NSR:StopPlace:37544,,700,1
NSR:Quay:65179,Gjelaneset,63.340771,8.773991,,,NSR:StopPlace:37544,,700,1
NSR:Quay:65207,Romundstad,63.026215,9.319593,,,NSR:StopPlace:37564,,700,1
NSR:Quay:65383,Valsøya,63.142143,8.533605,,,NSR:StopPlace:37685,,700,1
NSR:Quay:65388,Valsøybotn,63.096284,8.626102,,,NSR:StopPlace:37688,,700,1
NSR:Quay:65442,Rørdal,63.127943,9.401333,,,NSR:StopPlace:37728,,700,1
NSR:Quay:65446,Rørdal garasje,63.124184,9.384320,,,NSR:StopPlace:37731,,700,
NSR:Quay:65596,Vean,63.311085,8.602315,,,NSR:StopPlace:37831,,700,1
NSR:Quay:65597,Vean,63.311077,8.602136,,,NSR:StopPlace:37831,,700,1
NSR:Quay:65947,Setra,63.011029,9.458083,,,NSR:StopPlace:38061,,700,
NSR:Quay:65953,Setra,63.099537,8.605664,,,NSR:StopPlace:38065,,700,1
NSR:Quay:65988,Vikan,63.126304,8.610250,,,NSR:StopPlace:38090,,700,1
NSR:Quay:66088,Eidestranda,63.300993,8.538410,,,NSR:StopPlace:38157,,700,1
NSR:Quay:66284,Blåbærhaugen,63.043594,8.236367,,,NSR:StopPlace:38280,,700,
NSR:Quay:66356,Våg,63.285923,8.540555,,,NSR:StopPlace:38329,,700,1
NSR:Quay:66423,Vågland,63.118958,8.278145,,,NSR:StopPlace:38369,,700,1
NSR:Quay:66588,Gåsvatnet,63.142157,9.438404,,,NSR:StopPlace:38485,,700,1
NSR:Quay:66611,Enge,63.123495,8.560820,,,NSR:StopPlace:38498,,700,1
NSR:Quay:66699,Megard planteskole,63.071777,8.251158,,,NSR:StopPlace:38560,,700,1
NSR:Quay:66700,Megard planteskole,63.071735,8.249970,,,NSR:StopPlace:38560,,700,1
NSR:Quay:66703,Halsa barne- og ungdomsskole,63.120088,8.319376,,,NSR:StopPlace:38563,,700,
NSR:Quay:66717,Østbø,63.177157,9.460807,,,NSR:StopPlace:38573,,700,1
NSR:Quay:66722,Stornaustet,63.070090,8.241523,,,NSR:StopPlace:38577,,700,1
NSR:Quay:66727,Halsahagan,63.074466,8.217865,,,NSR:StopPlace:38581,,700,1
NSR:Quay:66806,Øvre Rindal skole,63.095692,9.273148,,,NSR:StopPlace:38638,,700,1
NSR:Quay:66810,Øvre Rindal skole,63.095574,9.274320,,,NSR:StopPlace:38638,,700,
NSR:Quay:66959,Felleskjøpet,63.071681,8.283292,,,NSR:StopPlace:38741,,700,1
NSR:Quay:67019,Haugen,63.101725,9.407124,,,NSR:StopPlace:38779,,700,
NSR:Quay:67020,Haugen,63.101676,9.406451,,,NSR:StopPlace:38779,,700,
NSR:Quay:67138,Helgetun,63.011709,9.444471,,,NSR:StopPlace:38856,,700,1
NSR:Quay:67209,Årvåg,63.349200,8.849999,,,NSR:StopPlace:38904,,700,1
NSR:Quay:67237,Fjærli,63.123018,8.617788,,,NSR:StopPlace:38923,,700,1
NSR:Quay:67287,Hennset ferjekai,63.136000,8.433992,,,NSR:StopPlace:38958,,700,
NSR:Quay:67297,Hermundsli,63.146984,9.391535,,,NSR:StopPlace:38966,,700,1
NSR:Quay:67446,Landsem,63.067176,9.218610,,,NSR:StopPlace:39062,,700,1
NSR:Quay:67447,Landsem,63.066711,9.218632,,,NSR:StopPlace:39062,,700,
NSR:Quay:67475,Langlia,63.047847,9.200208,,,NSR:StopPlace:39083,,700,1
NSR:Quay:67579,Taknes,63.148459,8.330745,,,NSR:StopPlace:39156,,700,1
NSR:Quay:67734,Lervik kryss,63.146667,8.568098,,,NSR:StopPlace:39259,,700,1
NSR:Quay:67740,Lerviklandet,63.142109,8.566557,,,NSR:StopPlace:39264,,700,1
NSR:Quay:67936,Lomunda,63.130427,9.341093,,,NSR:StopPlace:39391,,700,1
NSR:Quay:67940,Lomundsjø,63.159225,9.426003,,,NSR:StopPlace:39394,,700,1
NSR:Quay:67980,Luli,63.076560,9.323093,,,NSR:StopPlace:39423,,700,
NSR:Quay:68036,Løfald,63.093183,9.258530,,,NSR:StopPlace:39463,,700,
NSR:Quay:68037,Løfald,63.093176,9.257293,,,NSR:StopPlace:39463,,700,1
NSR:Quay:68042,Trøknaholt,63.094233,9.225796,,,NSR:StopPlace:39467,,700,1
NSR:Quay:68043,Trøknaholt,63.094200,9.224656,,,NSR:StopPlace:39467,,700,
NSR:Quay:68102,Løset,63.045509,9.243236,,,NSR:StopPlace:39502,,700,1
NSR:Quay:68127,Løsetlia,63.041581,9.249885,,,NSR:StopPlace:39517,,700,1
NSR:Quay:68198,Furuhaugen,63.100339,9.344468,,,NSR:StopPlace:39561,,700,
NSR:Quay:68303,Solvang,63.096635,9.233153,,,NSR:StopPlace:39635,,700,1
NSR:Quay:68317,Sommervoll,63.101251,9.363248,,,NSR:StopPlace:39643,,700,
NSR:Quay:68318,Sommervoll,63.101305,9.363691,,,NSR:StopPlace:39643,,700,1
NSR:Quay:68520,Kattem,63.018799,9.350175,,,NSR:StopPlace:39797,,700,1
NSR:Quay:68558,Stemshaug,63.327793,8.708029,,,NSR:StopPlace:39823,,700,2
NSR:Quay:68559,Stemshaug,63.327755,8.708188,,,NSR:StopPlace:39823,,700,1
NSR:Quay:68569,Kirkholt,63.017293,9.367376,,,NSR:StopPlace:39828,,700,1
NSR:Quay:68738,Storholt,63.096973,9.436406,,,NSR:StopPlace:39939,,700,
NSR:Quay:68739,Storholt,63.097080,9.436116,,,NSR:StopPlace:39939,,700,2
NSR:Quay:68745,Storli,63.011155,9.411584,,,NSR:StopPlace:39943,,700,1
NSR:Quay:68755,Gjengstø,63.098126,8.342418,,,NSR:StopPlace:39950,,700,1
NSR:Quay:68787,Klætten,63.124509,8.353429,,,NSR:StopPlace:39975,,700,1
NSR:Quay:68798,Strand,63.145188,8.290126,,,NSR:StopPlace:39982,,700,1
NSR:Quay:68993,Kristiansund hurtigbåtkai,63.114225,7.735566,,,NSR:StopPlace:40114,,1000,1
NSR:Quay:69015,Sunna,63.059260,9.195946,,,NSR:StopPlace:40126,,700,
NSR:Quay:69016,Sunna,63.059196,9.196083,,,NSR:StopPlace:40126,,700,1
NSR:Quay:69225,Aakvik,63.087396,8.188612,,,NSR:StopPlace:40275,,700,
NSR:Quay:69434,Moan,63.047176,9.191598,,,NSR:StopPlace:40416,,700,1
NSR:Quay:69492,Aune,63.044382,9.142854,,,NSR:StopPlace:40454,,700,1
NSR:Quay:69772,Betna,63.087703,8.351970,,,NSR:StopPlace:40654,,700,
NSR:Quay:69807,Bjerjinn,63.050020,9.213504,,,NSR:StopPlace:40677,,700,
NSR:Quay:69808,Bjerjinn,63.050045,9.213781,,,NSR:StopPlace:40677,,700,1
NSR:Quay:69969,Bjørnås,63.079742,9.207385,,,NSR:StopPlace:40793,,700,1
NSR:Quay:69973,Bjørnåsen YX,63.070928,9.207509,,,NSR:StopPlace:40795,,700,
NSR:Quay:69974,Bjørnåsen YX,63.070876,9.207460,,,NSR:StopPlace:40795,,700,1
NSR:Quay:70003,BKW Enge bruk,63.122055,8.577187,,,NSR:StopPlace:40815,,700,1
NSR:Quay:70020,Nerstad,63.055492,9.187298,,,NSR:StopPlace:40827,,700,
NSR:Quay:70021,Nerstad,63.055137,9.186724,,,NSR:StopPlace:40827,,700,1
NSR:Quay:70022,Blekken,63.087128,8.388319,,,NSR:StopPlace:40831,,700,2
NSR:Quay:70023,Blekken,63.087271,8.387117,,,NSR:StopPlace:40831,,700,1
NSR:Quay:70079,Nessaøra,63.123087,8.580926,,,NSR:StopPlace:40865,,700,1
NSR:Quay:70085,Bolmsvollan,63.047419,9.179914,,,NSR:StopPlace:40872,,700,1
NSR:Quay:70087,Bolmsvollan,63.047471,9.179820,,,NSR:StopPlace:40872,,700,
NSR:Quay:70119,Bolme,63.048020,9.169483,,,NSR:StopPlace:40895,,700,1
NSR:Quay:70144,Nordbu,63.050952,9.172533,,,NSR:StopPlace:40910,,700,
NSR:Quay:70216,Nordlikrysset,63.119228,9.337695,,,NSR:StopPlace:40954,,700,1
NSR:Quay:70383,Olderbakken,63.313911,8.625228,,,NSR:StopPlace:41070,,700,1
NSR:Quay:70472,Skogen,63.102357,9.389349,,,NSR:StopPlace:41124,,700,2
NSR:Quay:70474,Skogen,63.102222,9.389840,,,NSR:StopPlace:41124,,700,
NSR:Quay:70581,Otnes,63.136004,8.494162,,,NSR:StopPlace:41199,,700,1
NSR:Quay:70655,Bårset,63.107530,8.260036,,,NSR:StopPlace:41250,,700,1
NSR:Quay:70966,Edøy hurtigbåtkai,63.286200,8.137063,,,NSR:StopPlace:41473,,1000,1
NSR:Quay:70974,Engdal,63.181712,8.743266,,,NSR:StopPlace:41478,,700,1
NSR:Quay:71004,Rindal,63.055020,9.211669,,,NSR:StopPlace:41497,,700,1
NSR:Quay:71005,Rindal rutebilstasjon,63.056900,9.213634,,,NSR:StopPlace:41498,,700,1
NSR:Quay:71008,Rindal skole,63.058388,9.211544,,,NSR:StopPlace:41500,,700,1
NSR:Quay:71009,Rindalsskogen,63.098080,9.323713,,,NSR:StopPlace:41501,,700,
NSR:Quay:71010,Rindalsskogen,63.098130,9.323350,,,NSR:StopPlace:41501,,700,2
NSR:Quay:71132,Pirbadet,63.440450,10.403141,,,NSR:StopPlace:41586,,700,
NSR:Quay:71133,Tiller vgs.,63.358058,10.378502,,,NSR:StopPlace:41587,,700,
NSR:Quay:71134,Pirbadet,63.441077,10.402333,,,NSR:StopPlace:41586,,700,
NSR:Quay:71135,Heimdalsvegen 73,63.343918,10.346098,,,NSR:StopPlace:41588,,700,
NSR:Quay:71136,Tiller vgs.,63.358636,10.378161,,,NSR:StopPlace:41587,,700,
NSR:Quay:71137,Heimdalsvegen 73,63.344075,10.346624,,,NSR:StopPlace:41588,,700,
NSR:Quay:71138,Planetringen,63.432469,10.637689,,,NSR:StopPlace:41589,,700,
NSR:Quay:71139,Planetringen,63.432516,10.637346,,,NSR:StopPlace:41589,,700,
NSR:Quay:71140,Plassbekken,63.015159,10.389588,,,NSR:StopPlace:41590,,700,
NSR:Quay:71141,Plassbekken,63.015058,10.389901,,,NSR:StopPlace:41590,,700,
NSR:Quay:71142,Plassen,62.713883,10.028157,,,NSR:StopPlace:41591,,700,
NSR:Quay:71143,Plassen,62.713960,10.027986,,,NSR:StopPlace:41591,,700,
NSR:Quay:71145,Tilset,62.659499,9.859250,,,NSR:StopPlace:41593,,700,
NSR:Quay:71146,Tilset,62.659340,9.858491,,,NSR:StopPlace:41593,,700,
NSR:Quay:71147,Sluppenvegen,63.396902,10.396398,,,NSR:StopPlace:41594,,700,
NSR:Quay:71148,Sluppenvegen,63.397244,10.397583,,,NSR:StopPlace:41594,,700,
NSR:Quay:71149,Helgbostad,63.555563,8.601335,,,NSR:StopPlace:41595,,700,
NSR:Quay:71151,Titran,63.666769,8.306179,,,NSR:StopPlace:41597,,700,
NSR:Quay:71152,Titran,63.666667,8.306249,,,NSR:StopPlace:41597,,700,
NSR:Quay:71154,Heliveien,63.141259,9.637107,,,NSR:StopPlace:41599,,700,
NSR:Quay:71155,Heliveien,63.141502,9.637279,,,NSR:StopPlace:41599,,700,
NSR:Quay:71156,Prestgårdskrysset,63.299168,10.474329,,,NSR:StopPlace:41600,,700,
NSR:Quay:71157,Prestgårdskrysset,63.298348,10.476475,,,NSR:StopPlace:41600,,700,
NSR:Quay:71158,Titran skole,63.670115,8.321124,,,NSR:StopPlace:41601,,700,
NSR:Quay:71159,Titran skole,63.670097,8.321210,,,NSR:StopPlace:41601,,700,
NSR:Quay:71160,Presthus,63.423727,10.518811,,,NSR:StopPlace:41602,,700,
NSR:Quay:71161,Presthus,63.424735,10.515791,,,NSR:StopPlace:41602,,700,
NSR:Quay:71162,Hellem,63.790923,9.610722,,,NSR:StopPlace:41603,,700,
NSR:Quay:71163,Hellem,63.790878,9.610776,,,NSR:StopPlace:41603,,700,
NSR:Quay:71164,Tjønnbakken,63.596016,10.111614,,,NSR:StopPlace:41604,,700,
NSR:Quay:71165,Tjønnbakken,63.595732,10.112435,,,NSR:StopPlace:41604,,700,
NSR:Quay:71166,Presthusaunet,63.419700,10.494934,,,NSR:StopPlace:41605,,700,
NSR:Quay:71167,Presthusaunet,63.418346,10.494844,,,NSR:StopPlace:41605,,700,
NSR:Quay:71168,Prestrønning,62.928214,11.129134,,,NSR:StopPlace:41606,,700,
NSR:Quay:71169,Prestrønning,62.928147,11.129081,,,NSR:StopPlace:41606,,700,
NSR:Quay:71170,Hellesvik,63.779352,8.811757,,,NSR:StopPlace:41607,,700,
NSR:Quay:71171,Hellesvik,63.778793,8.812301,,,NSR:StopPlace:41607,,700,
NSR:Quay:71172,Tjønnlia,63.401759,10.509920,,,NSR:StopPlace:41608,,700,
NSR:Quay:71173,Tjønnlia,63.401839,10.509949,,,NSR:StopPlace:41608,,700,
NSR:Quay:71174,Nidarosdomen,63.425815,10.393372,,,NSR:StopPlace:41609,,700,
NSR:Quay:71175,Nidarosdomen,63.426072,10.393608,,,NSR:StopPlace:41609,,700,
NSR:Quay:71178,Hellesvik,63.887798,9.897738,,,NSR:StopPlace:41611,,700,
NSR:Quay:71179,Tjønnstua,63.786420,9.879155,,,NSR:StopPlace:41612,,700,
NSR:Quay:71180,Tjønnstua,63.786455,9.879316,,,NSR:StopPlace:41612,,700,
NSR:Quay:71181,Prinsens gate,63.431194,10.392115,ved AtB Kundesenter,,NSR:StopPlace:41613,,700,
NSR:Quay:71184,Prinsens gate,63.430874,10.391899,ved Bunnpris,,NSR:StopPlace:41613,,700,
NSR:Quay:71186,Togstadjåren,63.197601,9.736231,,,NSR:StopPlace:41615,,700,
NSR:Quay:71188,Togstadjåren,63.198027,9.734901,,,NSR:StopPlace:41615,,700,
NSR:Quay:71190,St. Olavs Hospital øst,63.420757,10.390046,ved Nevrosenteret,,NSR:StopPlace:41617,,700,
NSR:Quay:71191,St. Olavs Hospital øst,63.420565,10.390672,ved Kvinne-barn-senteret,,NSR:StopPlace:41617,,700,
NSR:Quay:71193,Hellesvik veikryss,63.880809,9.898075,,,NSR:StopPlace:41619,,700,
NSR:Quay:71196,Sagmælen,63.291968,9.085495,,,NSR:StopPlace:41621,,700,
NSR:Quay:71197,Sagmælen,63.291557,9.086243,,,NSR:StopPlace:41621,,700,
NSR:Quay:71198,Tomtebo,62.605566,11.653721,,,NSR:StopPlace:41622,,700,
NSR:Quay:71199,Tomtebo,62.605502,11.653731,,,NSR:StopPlace:41622,,700,
NSR:Quay:71200,Hemnehallen,63.292322,9.080112,,,NSR:StopPlace:41623,,700,
NSR:Quay:71201,Hemnehallen,63.292129,9.079074,,,NSR:StopPlace:41623,,700,
NSR:Quay:71202,Tonstadgrenda,63.361860,10.384880,,,NSR:StopPlace:41624,,700,
NSR:Quay:71203,Tonstadgrenda,63.361794,10.387116,,,NSR:StopPlace:41624,,700,
NSR:Quay:71204,Hesthagen,63.415486,10.398155,,,NSR:StopPlace:41620,,700,
NSR:Quay:71205,Hemnskjel,63.497554,9.157931,,,NSR:StopPlace:41625,,700,
NSR:Quay:71206,Tonstadkrysset,63.370683,10.382319,bak Tonstadkrysset 1,,NSR:StopPlace:61276,,700,
NSR:Quay:71207,Rabben,63.723558,8.836969,,,NSR:StopPlace:41627,,700,
NSR:Quay:71208,Hemnskjel,63.497493,9.157088,,,NSR:StopPlace:41625,,700,
NSR:Quay:71209,Tonstadkrysset,63.370393,10.374050,i Kolstadveien,,NSR:StopPlace:61276,,700,
NSR:Quay:71210,Rabben,63.723770,8.836520,,,NSR:StopPlace:41627,,700,
NSR:Quay:71215,Tonstadkrysset,63.369068,10.376273,ved Byggmakker,,NSR:StopPlace:61276,,700,
NSR:Quay:71216,Henmoen,63.050264,11.587594,,,NSR:StopPlace:41631,,700,
NSR:Quay:71217,Henmoen,63.050170,11.587588,,,NSR:StopPlace:41631,,700,
NSR:Quay:71218,Rakbjørg gård,63.257602,10.194124,,,NSR:StopPlace:41632,,700,
NSR:Quay:71219,Rakbjørg gård,63.257520,10.194167,,,NSR:StopPlace:41632,,700,
NSR:Quay:71221,Rambu,62.503238,11.557598,,,NSR:StopPlace:41634,,700,
NSR:Quay:71222,Henrik Ourens veg,63.415012,10.445394,,,NSR:StopPlace:41635,,700,
NSR:Quay:71223,Rambu,62.503367,11.557542,,,NSR:StopPlace:41634,,700,
NSR:Quay:71224,Henrik Ourens veg,63.416042,10.446286,,,NSR:StopPlace:41635,,700,
NSR:Quay:71225,Ramstad,63.412144,10.476113,,,NSR:StopPlace:41636,,700,
NSR:Quay:71226,Ramstad,63.412237,10.476094,,,NSR:StopPlace:41636,,700,
NSR:Quay:71227,Ramsvika,63.751388,10.087147,,,NSR:StopPlace:41637,,700,
NSR:Quay:71228,Ramsvika,63.751280,10.087834,,,NSR:StopPlace:41637,,700,
NSR:Quay:71231,Hepsøy hurtigbåtkai,64.323588,10.387782,,,NSR:StopPlace:41639,,1000,
NSR:Quay:71232,Ramsøy hurtigbåtkai,64.328378,10.415637,,,NSR:StopPlace:41640,,1000,
NSR:Quay:71233,Ramsøyaunet hurtigbåtkai,64.340531,10.417012,,,NSR:StopPlace:41641,,1000,
NSR:Quay:71234,Torgaardssletta,63.328707,10.364300,,,NSR:StopPlace:41643,,700,
NSR:Quay:71236,Torgaardssletta,63.329533,10.363635,,,NSR:StopPlace:41643,,700,
NSR:Quay:71240,Randlia,63.351126,10.441976,,,NSR:StopPlace:41645,,700,
NSR:Quay:71241,Randlia,63.351184,10.441985,,,NSR:StopPlace:41645,,700,
NSR:Quay:71243,Herfjordvatn,64.012729,10.047137,,,NSR:StopPlace:41647,,700,
NSR:Quay:71245,Herfjordvatn,64.012780,10.047837,,,NSR:StopPlace:41647,,700,
NSR:Quay:71246,Ranheim fabrikker E6,63.421942,10.535543,,,NSR:StopPlace:41648,,700,
NSR:Quay:71247,Ranheim fabrikker,63.421858,10.536074,,,NSR:StopPlace:41649,,700,
NSR:Quay:71248,Ranheim fabrikker,63.421675,10.535848,,,NSR:StopPlace:41649,,700,
NSR:Quay:71249,Ranheim idrettsplass,63.427952,10.522386,,,NSR:StopPlace:41650,,700,
NSR:Quay:71250,Ranheim idrettsplass,63.427672,10.523880,,,NSR:StopPlace:41650,,700,
NSR:Quay:71251,Torgardshaugen,63.322712,10.376418,,,NSR:StopPlace:41651,,700,
NSR:Quay:71252,Torgardshaugen,63.322696,10.376705,,,NSR:StopPlace:41651,,700,
NSR:Quay:71253,Herlofsonløypa,63.405185,10.320049,,,NSR:StopPlace:41652,,900,
NSR:Quay:71254,Herlofsonløypa,63.405132,10.319332,,,NSR:StopPlace:41652,,900,
NSR:Quay:71262,Hermanstad,63.202620,10.250122,,,NSR:StopPlace:41657,,700,
NSR:Quay:71263,Hermanstad,63.202683,10.250117,,,NSR:StopPlace:41657,,700,
NSR:Quay:71265,Ranøyen,62.926723,11.139990,,,NSR:StopPlace:41659,,700,
NSR:Quay:71266,Ranøyen,62.926416,11.140644,,,NSR:StopPlace:41659,,700,
NSR:Quay:71267,Orkanger torg,63.304405,9.849034,,,NSR:StopPlace:41660,,700,
NSR:Quay:71268,Orkanger torg,63.304703,9.848935,,,NSR:StopPlace:41660,,700,
NSR:Quay:71269,Raphaugen,62.829659,10.485608,,,NSR:StopPlace:41661,,700,
NSR:Quay:71270,Hermstad,63.560860,10.092951,,,NSR:StopPlace:41662,,700,
NSR:Quay:71271,Hermstad,63.560850,10.092651,,,NSR:StopPlace:41662,,700,
NSR:Quay:71273,Torp,63.434042,10.690757,,,NSR:StopPlace:41664,,700,
NSR:Quay:71274,Torp,63.433871,10.693308,,,NSR:StopPlace:41664,,700,
NSR:Quay:71275,Rate,63.386971,10.397779,,,NSR:StopPlace:41665,,700,
NSR:Quay:71277,Raudberget,63.489683,9.990169,,,NSR:StopPlace:41667,,700,
NSR:Quay:71280,Raustein,63.618795,9.604041,,,NSR:StopPlace:41669,,700,
NSR:Quay:71281,Raustein,63.618351,9.602936,,,NSR:StopPlace:41669,,700,
NSR:Quay:71282,Hernes kryss,63.503441,8.362345,,,NSR:StopPlace:41670,,700,
NSR:Quay:71283,Hernes kryss,63.503694,8.362731,,,NSR:StopPlace:41670,,700,
NSR:Quay:71285,Tors veg,63.404835,10.427112,,,NSR:StopPlace:41672,,700,
NSR:Quay:71286,Refset,62.996909,10.465942,,,NSR:StopPlace:41673,,700,
NSR:Quay:71287,Herremsveien,62.886016,9.829650,,,NSR:StopPlace:41674,,700,
NSR:Quay:71289,Herremsveien,62.886128,9.829671,,,NSR:StopPlace:41674,,700,
NSR:Quay:71290,Refsnes,63.716595,9.969953,,,NSR:StopPlace:41675,,700,
NSR:Quay:71291,Refsnes,63.716614,9.970155,,,NSR:StopPlace:41675,,700,
NSR:Quay:71292,Torshus,63.257385,9.779881,,,NSR:StopPlace:41676,,700,
NSR:Quay:71293,Torshus,63.257496,9.779803,,,NSR:StopPlace:41676,,700,
NSR:Quay:71294,Hessdalen kirke,62.790608,11.182014,,,NSR:StopPlace:41677,,700,
NSR:Quay:71295,Rein,63.564606,9.924887,,,NSR:StopPlace:41678,,700,
NSR:Quay:71296,Hessdalen kirke,62.790586,11.181888,,,NSR:StopPlace:41677,,700,
NSR:Quay:71297,Rein,63.564532,9.924557,,,NSR:StopPlace:41678,,700,
NSR:Quay:71298,Reinsjøen,63.496874,10.033387,,,NSR:StopPlace:41679,,700,
NSR:Quay:71300,Torvet,63.551374,9.924790,,,NSR:StopPlace:41680,,700,
NSR:Quay:71301,Torvet,63.551563,9.924903,,,NSR:StopPlace:41680,,700,
NSR:Quay:71302,Hessdalskjølen,62.834945,11.202689,,,NSR:StopPlace:41681,,700,
NSR:Quay:71303,Hessdalskjølen,62.835020,11.202959,,,NSR:StopPlace:41681,,700,
NSR:Quay:71304,Reinskleiva,63.225173,9.787011,,,NSR:StopPlace:41682,,700,
NSR:Quay:71305,Reinskleiva,63.224860,9.787810,,,NSR:StopPlace:41682,,700,
NSR:Quay:71306,Reistøa,62.964118,10.867879,,,NSR:StopPlace:41683,,700,
NSR:Quay:71307,Reistøa,62.964157,10.867541,,,NSR:StopPlace:41683,,700,
NSR:Quay:71308,Torvmyra,63.361336,10.391673,,,NSR:StopPlace:41684,,700,
NSR:Quay:71309,Torvmyra,63.361355,10.389915,,,NSR:StopPlace:41684,,700,
NSR:Quay:71310,Hessdalskrysset,62.848658,11.244338,,,NSR:StopPlace:41685,,700,
NSR:Quay:71311,Hessdalskrysset,62.848608,11.245298,,,NSR:StopPlace:41685,,700,
NSR:Quay:71312,Reitan,63.323787,9.822531,,,NSR:StopPlace:41686,,700,
NSR:Quay:71313,Reitan,63.323709,9.822467,,,NSR:StopPlace:41686,,700,
NSR:Quay:71314,Reitan bru,62.950577,11.806159,,,NSR:StopPlace:41687,,700,
NSR:Quay:71315,Reitan bru,62.950427,11.806188,,,NSR:StopPlace:41687,,700,
NSR:Quay:71316,Torvtaket,63.348614,10.376898,,,NSR:StopPlace:41688,,700,
NSR:Quay:71317,Torvtaket,63.348407,10.377333,,,NSR:StopPlace:41688,,700,
NSR:Quay:71318,Hestnes,63.590286,8.588787,,,NSR:StopPlace:41689,,700,
NSR:Quay:71322,Hestsjøen,63.356400,10.272276,,,NSR:StopPlace:41691,,700,
NSR:Quay:71323,Tovehaugen,63.195690,9.584715,,,NSR:StopPlace:41692,,700,
NSR:Quay:71324,Hestsjøen,63.356360,10.271495,,,NSR:StopPlace:41691,,700,
NSR:Quay:71326,Reksa,63.645830,9.169471,,,NSR:StopPlace:41693,,700,
NSR:Quay:71327,Renbrua,62.837478,11.329093,,,NSR:StopPlace:41694,,700,
NSR:Quay:71328,Renbrua,62.837800,11.328594,,,NSR:StopPlace:41694,,700,
NSR:Quay:71329,Trafost,63.574170,8.958701,,,NSR:StopPlace:41695,,700,
NSR:Quay:71330,Hesttrø,63.298166,10.483457,,,NSR:StopPlace:41696,,700,
NSR:Quay:71331,Trafost,63.574571,8.957977,,,NSR:StopPlace:41695,,700,
NSR:Quay:71332,Hesttrø,63.297933,10.483089,,,NSR:StopPlace:41696,,700,
NSR:Quay:71335,Reppe snuplass,63.415995,10.557953,,,NSR:StopPlace:41698,,700,
NSR:Quay:71336,Hesttrøa,63.294599,10.332269,,,NSR:StopPlace:41699,,700,
NSR:Quay:71337,Hesttrøa,63.294623,10.332309,,,NSR:StopPlace:41699,,700,
NSR:Quay:71341,Reppevegen,63.423264,10.543021,,,NSR:StopPlace:41702,,700,
NSR:Quay:71342,Reppevegen,63.423480,10.543144,,,NSR:StopPlace:41702,,700,
NSR:Quay:71343,Hestvika,63.569117,9.195248,,,NSR:StopPlace:41703,,700,
NSR:Quay:71344,Hestvika,63.569206,9.195278,,,NSR:StopPlace:41703,,700,
NSR:Quay:71345,Tranghaugen,63.497462,10.091272,,,NSR:StopPlace:41704,,700,
NSR:Quay:71346,Tranghaugen,63.497543,10.091034,,,NSR:StopPlace:41704,,700,
NSR:Quay:71347,Reppkleiv,64.183416,10.431736,,,NSR:StopPlace:41705,,700,
NSR:Quay:71348,Reppkleiv,64.183524,10.431583,,,NSR:StopPlace:41705,,700,
NSR:Quay:71351,Tranvik vegdele,63.572183,9.027117,,,NSR:StopPlace:41707,,700,
NSR:Quay:71352,Tranvik vegdele,63.572237,9.026840,,,NSR:StopPlace:41707,,700,
NSR:Quay:71353,Restadveien,63.164393,10.054511,,,NSR:StopPlace:41708,,700,
NSR:Quay:71354,Restadveien,63.164535,10.053890,,,NSR:StopPlace:41708,,700,
NSR:Quay:71355,Retmoen,63.082303,10.062546,,,NSR:StopPlace:41709,,700,
NSR:Quay:71356,Retmoen,63.082519,10.062028,,,NSR:StopPlace:41709,,700,
NSR:Quay:71357,Hevlesvegen,62.563329,9.642890,,,NSR:StopPlace:41710,,700,
NSR:Quay:71358,Tranvikan,63.598129,9.027567,,,NSR:StopPlace:41711,,700,
NSR:Quay:71359,Hevlesvegen,62.563207,9.642590,,,NSR:StopPlace:41710,,700,
NSR:Quay:71360,Tranvikan,63.598162,9.028055,,,NSR:StopPlace:41711,,700,
NSR:Quay:71361,Revsnes,64.038327,10.055467,,,NSR:StopPlace:41712,,700,
NSR:Quay:71363,Travbanen,63.431489,10.477073,,,NSR:StopPlace:41715,,700,
NSR:Quay:71365,Travbanen,63.431851,10.476167,,,NSR:StopPlace:41715,,700,
NSR:Quay:71366,Hillmo,63.079855,11.426551,,,NSR:StopPlace:41714,,700,
NSR:Quay:71367,Rian,63.342487,9.953675,,,NSR:StopPlace:41716,,700,
NSR:Quay:71368,Rian,63.342598,9.954319,,,NSR:StopPlace:41716,,700,
NSR:Quay:71369,Riaunet,63.299591,10.057981,,,NSR:StopPlace:41717,,700,
NSR:Quay:71370,Riaunet,63.299312,10.057718,,,NSR:StopPlace:41717,,700,
NSR:Quay:71371,Hillmo bru,63.070823,11.434855,,,NSR:StopPlace:41718,,700,
NSR:Quay:71372,Hillmo bru,63.070806,11.435054,,,NSR:StopPlace:41718,,700,
NSR:Quay:71373,Travbanevegen,63.433170,10.471615,,,NSR:StopPlace:41719,,700,
NSR:Quay:71374,Travbanevegen,63.433254,10.469944,,,NSR:StopPlace:41719,,700,
NSR:Quay:71375,Ribygda,63.278179,10.028501,,,NSR:StopPlace:41720,,700,
NSR:Quay:71376,Rimset,62.909769,10.322191,,,NSR:StopPlace:41721,,700,
NSR:Quay:71377,Rimset,62.909789,10.322270,,,NSR:StopPlace:41721,,700,
NSR:Quay:71378,Hindbjørgen,62.957276,10.794067,,,NSR:StopPlace:41722,,700,
NSR:Quay:71379,Hindbjørgen,62.957318,10.793724,,,NSR:StopPlace:41722,,700,
NSR:Quay:71380,Trolla,63.451443,10.310548,,,NSR:StopPlace:41723,,700,
NSR:Quay:71381,Trolla,63.451897,10.309398,,,NSR:StopPlace:41723,,700,
NSR:Quay:71382,Ringve museum,63.449355,10.456686,,,NSR:StopPlace:41724,,700,
NSR:Quay:71383,Ringve museum,63.449479,10.456479,,,NSR:StopPlace:41724,,700,
NSR:Quay:71384,Ringve skole,63.449738,10.444757,,,NSR:StopPlace:41725,,700,
NSR:Quay:71385,Ringve skole,63.449654,10.446037,,,NSR:StopPlace:41725,,700,
NSR:Quay:71386,Trolla,63.660103,9.082092,,,NSR:StopPlace:41726,,700,
NSR:Quay:71387,Hindsverkrønning,62.959186,10.813715,,,NSR:StopPlace:41727,,700,
NSR:Quay:71388,Ringvål,63.351952,10.249920,,,NSR:StopPlace:41728,,700,
NSR:Quay:71389,Ringvål,63.351952,10.249820,,,NSR:StopPlace:41728,,700,
NSR:Quay:71390,Ringvål grind,63.355744,10.255960,,,NSR:StopPlace:41729,,700,
NSR:Quay:71391,Ringvål grind,63.355710,10.256649,,,NSR:StopPlace:41729,,700,
NSR:Quay:71393,Trollahaugen 10,63.451293,10.300576,,,NSR:StopPlace:41730,,700,
NSR:Quay:71396,Rise,62.905068,10.359274,,,NSR:StopPlace:41732,,700,
NSR:Quay:71397,Rise,62.905048,10.359445,,,NSR:StopPlace:41732,,700,
NSR:Quay:71398,Trollahaugen 2,63.450257,10.301230,,,NSR:StopPlace:41733,,700,
NSR:Quay:71400,Risgrenda,62.521978,9.608847,,,NSR:StopPlace:41735,,700,
NSR:Quay:71401,Risgrenda,62.522287,9.609159,,,NSR:StopPlace:41735,,700,
NSR:Quay:71402,Hjertåsbakken,63.515189,9.041625,,,NSR:StopPlace:41736,,700,
NSR:Quay:71403,Hjertåsbakken,63.515031,9.042858,,,NSR:StopPlace:41736,,700,
NSR:Quay:71404,Trollahaugen 46,63.451962,10.302676,,,NSR:StopPlace:41737,,700,
NSR:Quay:71405,Rissa skysstasjon,63.582580,9.953502,,,NSR:StopPlace:41738,,700,
NSR:Quay:71406,Rissa skysstasjon,63.582640,9.953444,,,NSR:StopPlace:41738,,700,
NSR:Quay:71407,Trollahaugen 64,63.452209,10.304540,,,NSR:StopPlace:41739,,700,
NSR:Quay:71408,Hjulmakerveien,62.584338,11.370195,,,NSR:StopPlace:41740,,700,
NSR:Quay:71409,Risvik,63.760362,9.664873,,,NSR:StopPlace:41741,,700,
NSR:Quay:71410,Risvik,63.760413,9.664608,,,NSR:StopPlace:41741,,700,
NSR:Quay:71412,Trondheim S,63.436035,10.401348,,,NSR:StopPlace:41742,,700,
NSR:Quay:71413,Risvollan senter,63.390575,10.429554,,,NSR:StopPlace:41743,,700,
NSR:Quay:71414,Risvollan senter,63.390707,10.429188,,,NSR:StopPlace:41743,,700,
NSR:Quay:71416,Trondheim S,63.435932,10.401385,,,NSR:StopPlace:41742,,700,
NSR:Quay:71418,Trondheim S,63.436028,10.400624,,,NSR:StopPlace:41742,,700,
NSR:Quay:71421,Hjørundhølen bru,63.694640,10.275543,,,NSR:StopPlace:41744,,700,
NSR:Quay:71423,Hjørundhølen bru,63.695420,10.276674,,,NSR:StopPlace:41744,,700,
NSR:Quay:71425,Risvollvegen,63.394515,10.423483,,,NSR:StopPlace:41745,,700,
NSR:Quay:71426,Hoeggen skole,63.401226,10.433753,,,NSR:StopPlace:41746,,700,
NSR:Quay:71427,Hoeggen skole,63.401354,10.433342,,,NSR:StopPlace:41746,,700,
NSR:Quay:71428,Roan,64.172493,10.229160,,,NSR:StopPlace:41747,,700,
NSR:Quay:71429,Roan,64.172150,10.229116,,,NSR:StopPlace:41747,,700,
NSR:Quay:71431,Rognbudalen,63.354256,10.379518,,,NSR:StopPlace:41749,,700,
NSR:Quay:71432,Rognbudalen,63.353800,10.381340,,,NSR:StopPlace:41749,,700,
NSR:Quay:71433,Hofstad,64.196990,10.405636,,,NSR:StopPlace:41750,,700,
NSR:Quay:71435,Hofstad,64.197066,10.405490,,,NSR:StopPlace:41750,,700,
NSR:Quay:71436,Rognes,63.009126,10.450037,,,NSR:StopPlace:41752,,700,
NSR:Quay:71437,Rognes,63.008902,10.450074,,,NSR:StopPlace:41752,,700,
NSR:Quay:71438,Nidarø,63.426704,10.377384,,,NSR:StopPlace:41751,,700,
NSR:Quay:71439,Hofstadsanden,63.253031,10.280207,,,NSR:StopPlace:41754,,700,
NSR:Quay:71440,Hofstadsanden,63.253133,10.280467,,,NSR:StopPlace:41754,,700,
NSR:Quay:71441,Rognes bru,63.003944,10.455068,,,NSR:StopPlace:41755,,700,
NSR:Quay:71442,Rognes bru,63.004254,10.455143,,,NSR:StopPlace:41755,,700,
NSR:Quay:71443,Trongbakken,63.098299,9.692908,,,NSR:StopPlace:41756,,700,
NSR:Quay:71444,Trongbakken,63.098397,9.693117,,,NSR:StopPlace:41756,,700,
NSR:Quay:71445,Hogsdalen,63.698343,10.240020,,,NSR:StopPlace:41757,,700,
NSR:Quay:71446,Hogsdalen,63.698411,10.239775,,,NSR:StopPlace:41757,,700,
NSR:Quay:71447,Rognheim,63.399377,10.372837,,,NSR:StopPlace:41758,,900,
NSR:Quay:71448,Rognheim,63.399419,10.373403,,,NSR:StopPlace:41758,,900,
NSR:Quay:71449,Tronsaune,62.946907,11.290638,,,NSR:StopPlace:41759,,700,
NSR:Quay:71450,Tronsaune,62.947014,11.290587,,,NSR:StopPlace:41759,,700,
NSR:Quay:71451,Hol,62.585696,9.399034,,,NSR:StopPlace:41760,,700,
NSR:Quay:71452,Hol,62.585969,9.400598,,,NSR:StopPlace:41760,,700,
NSR:Quay:71453,Rognøy,62.711087,9.958036,,,NSR:StopPlace:41761,,700,
NSR:Quay:71454,Rognøy,62.711494,9.958777,,,NSR:StopPlace:41761,,700,
NSR:Quay:71455,Tronset,63.189792,11.107384,,,NSR:StopPlace:41762,,700,
NSR:Quay:71456,Tronset,63.189866,11.108294,,,NSR:StopPlace:41762,,700,
NSR:Quay:71457,Rogstad,63.013298,10.367282,,,NSR:StopPlace:41763,,700,
NSR:Quay:71458,Rogstad,63.013368,10.366577,,,NSR:StopPlace:41763,,700,
NSR:Quay:71460,Hol,62.562491,9.622315,,,NSR:StopPlace:41764,,700,
NSR:Quay:71461,Rogstadgjerdet,63.014225,10.375517,,,NSR:StopPlace:41765,,700,
NSR:Quay:71462,Rogstadgjerdet,63.014404,10.376462,,,NSR:StopPlace:41765,,700,
NSR:Quay:71463,Holden,62.691804,9.905283,,,NSR:StopPlace:41766,,700,
NSR:Quay:71464,Rogstadgrind,63.014075,10.357750,,,NSR:StopPlace:41767,,700,
NSR:Quay:71465,Rogstadøyen,63.017738,10.335141,,,NSR:StopPlace:41768,,700,
NSR:Quay:71466,Rogstadøyen,63.017613,10.335852,,,NSR:StopPlace:41768,,700,
NSR:Quay:71467,Tronsetås,63.191840,11.087973,,,NSR:StopPlace:41769,,700,
NSR:Quay:71468,Tronsetås,63.191788,11.088102,,,NSR:StopPlace:41769,,700,
NSR:Quay:71469,Holden,62.795750,11.335979,,,NSR:StopPlace:41770,,700,
NSR:Quay:71472,Rolset,63.189524,11.184146,,,NSR:StopPlace:41772,,700,
NSR:Quay:71473,Rolset,63.189632,11.184120,,,NSR:StopPlace:41772,,700,
NSR:Quay:71474,Troøyen,62.969270,10.568880,,,NSR:StopPlace:41773,,700,
NSR:Quay:71475,Holden Bil,62.774544,11.344011,,,NSR:StopPlace:41774,,700,
NSR:Quay:71476,Rommet,63.674705,8.603376,,,NSR:StopPlace:41775,,700,
NSR:Quay:71477,Rommet,63.674723,8.603100,,,NSR:StopPlace:41775,,700,
NSR:Quay:71478,Trygan,63.477441,9.744658,,,NSR:StopPlace:41776,,700,
NSR:Quay:71480,Romolslia,63.379509,10.368245,,,NSR:StopPlace:41778,,700,
NSR:Quay:71481,Holden nedre,62.803063,11.332397,,,NSR:StopPlace:41779,,700,
NSR:Quay:71482,Holden nedre,62.803053,11.332239,,,NSR:StopPlace:41779,,700,
NSR:Quay:71485,Romolslia nedre,63.381813,10.369255,,,NSR:StopPlace:41782,,700,
NSR:Quay:71486,Romolslia nedre,63.381943,10.368921,,,NSR:StopPlace:41782,,700,
NSR:Quay:71487,Tråssåvika,63.347413,9.965710,,,NSR:StopPlace:41783,,700,
NSR:Quay:71488,Tråssåvika,63.347402,9.966010,,,NSR:StopPlace:41783,,700,
NSR:Quay:71489,Holden øvre,62.785349,11.341439,,,NSR:StopPlace:41784,,700,
NSR:Quay:71490,Holden øvre,62.785235,11.341281,,,NSR:StopPlace:41784,,700,
NSR:Quay:71491,Romolslia øvre,63.377037,10.362366,,,NSR:StopPlace:41785,,700,
NSR:Quay:71492,Hollaseterveien,63.312885,9.144797,,,NSR:StopPlace:41786,,700,
NSR:Quay:71493,Trøan,62.643164,11.402119,,,NSR:StopPlace:41787,,700,
NSR:Quay:71494,Hollaseterveien,63.312664,9.144498,,,NSR:StopPlace:41786,,700,
NSR:Quay:71495,Trøan,62.643391,11.402492,,,NSR:StopPlace:41787,,700,
NSR:Quay:71500,Trøndelag Folkemuseum,63.421481,10.356717,,,NSR:StopPlace:41791,,700,
NSR:Quay:71501,Hollasætra,63.309030,9.198804,,,NSR:StopPlace:41790,,700,
NSR:Quay:71502,Trøndelag Folkemuseum,63.420943,10.356012,,,NSR:StopPlace:41791,,700,
NSR:Quay:71503,Rosmælen skole,63.226390,10.274385,,,NSR:StopPlace:41792,,700,
NSR:Quay:71504,Rosmælen skole,63.226428,10.274376,,,NSR:StopPlace:41792,,700,
NSR:Quay:71505,Rostad,63.069451,10.278228,,,NSR:StopPlace:41793,,700,
NSR:Quay:71506,Rostad,63.069349,10.278727,,,NSR:StopPlace:41793,,700,
NSR:Quay:71507,Holmeng,64.040598,10.426353,,,NSR:StopPlace:41794,,700,
NSR:Quay:71508,Holmeng,64.040162,10.425312,,,NSR:StopPlace:41794,,700,
NSR:Quay:71509,Trøndertun,63.276607,10.248992,,,NSR:StopPlace:41795,,700,
NSR:Quay:71510,Trøndertun,63.277615,10.250681,,,NSR:StopPlace:41795,,700,
NSR:Quay:71511,Rosten,63.362308,10.362672,,,NSR:StopPlace:41796,,700,
NSR:Quay:71513,Holskrysset,62.903596,9.804254,,,NSR:StopPlace:41798,,700,
NSR:Quay:71514,Holskrysset,62.903639,9.805684,,,NSR:StopPlace:41798,,700,
NSR:Quay:71515,Trøveien,63.302826,10.154143,,,NSR:StopPlace:41799,,700,
NSR:Quay:71516,Trøveien,63.303062,10.154280,,,NSR:StopPlace:41799,,700,
NSR:Quay:71517,Rostengrenda,63.365978,10.381981,,,NSR:StopPlace:41800,,700,
NSR:Quay:71518,Rostengrenda,63.365245,10.382018,,,NSR:StopPlace:41800,,700,
NSR:Quay:71519,Tulluan nord,63.293148,10.438129,,,NSR:StopPlace:41801,,700,
NSR:Quay:71520,Holsmoen,62.844009,9.902662,,,NSR:StopPlace:41802,,700,
NSR:Quay:71521,Holsmoen,62.843885,9.903553,,,NSR:StopPlace:41802,,700,
NSR:Quay:71522,Rota,63.395947,10.528738,,,NSR:StopPlace:41803,,700,
NSR:Quay:71523,Rota,63.396024,10.529191,,,NSR:StopPlace:41803,,700,
NSR:Quay:71524,Tulluan skole,63.290816,10.437961,,,NSR:StopPlace:41804,,700,
NSR:Quay:71525,Tulluan skole,63.290558,10.437567,,,NSR:StopPlace:41804,,700,
NSR:Quay:71527,Holssætra,62.590278,9.541623,,,NSR:StopPlace:41805,,700,
NSR:Quay:71528,Rota,63.431530,10.760567,,,NSR:StopPlace:41806,,700,
NSR:Quay:71529,Rota,63.431348,10.760832,,,NSR:StopPlace:41806,,700,
NSR:Quay:71530,Rotla bru,63.183834,11.189693,,,NSR:StopPlace:41807,,700,
NSR:Quay:71531,Rotla bru,63.183799,11.190098,,,NSR:StopPlace:41807,,700,
NSR:Quay:71532,Tulluan syd,63.288556,10.436317,,,NSR:StopPlace:41808,,700,
NSR:Quay:71533,Tulluan syd,63.288594,10.436172,,,NSR:StopPlace:41808,,700,
NSR:Quay:71534,Holte,62.894304,10.247844,,,NSR:StopPlace:41809,,700,
NSR:Quay:71535,Holte,62.894543,10.248256,,,NSR:StopPlace:41809,,700,
NSR:Quay:71536,Rottem,63.461965,9.183999,,,NSR:StopPlace:41810,,700,
NSR:Quay:71537,Rottem,63.461965,9.183892,,,NSR:StopPlace:41810,,700,
NSR:Quay:71538,Tunga kretsfengsel,63.421276,10.471113,,,NSR:StopPlace:41811,,700,
NSR:Quay:71539,Tunga kretsfengsel,63.421844,10.471724,,,NSR:StopPlace:41811,,700,
NSR:Quay:71540,Holten,63.320027,10.500172,,,NSR:StopPlace:41812,,700,
NSR:Quay:71541,Holten,63.320004,10.500333,,,NSR:StopPlace:41812,,700,
NSR:Quay:71542,Rotvoll,63.435011,10.484229,,,NSR:StopPlace:41813,,700,
NSR:Quay:71543,Rotvoll,63.434888,10.483395,,,NSR:StopPlace:41813,,700,
NSR:Quay:71547,Holtmoen,62.887581,10.248565,,,NSR:StopPlace:41815,,700,
NSR:Quay:71549,Holtmoen,62.887292,10.248484,,,NSR:StopPlace:41815,,700,
NSR:Quay:71552,Rugeldalen stasjon,62.729958,11.327223,,,NSR:StopPlace:41818,,700,
NSR:Quay:71553,Rugeldalen stasjon,62.732054,11.326092,,,NSR:StopPlace:41818,,700,
NSR:Quay:71554,Hommelvik bomstasjon,63.413242,10.820388,,,NSR:StopPlace:41819,,700,
NSR:Quay:71555,Hommelvik bomstasjon,63.413117,10.821587,,,NSR:StopPlace:41819,,700,
NSR:Quay:71556,Tungavegen,63.416742,10.313877,,,NSR:StopPlace:41820,,700,
NSR:Quay:71557,Tungavegen,63.416787,10.313909,,,NSR:StopPlace:41820,,700,
NSR:Quay:71558,Rugelsjøen,62.716469,11.351315,,,NSR:StopPlace:41821,,700,
NSR:Quay:71559,Rugelsjøen,62.716325,11.351385,,,NSR:StopPlace:41821,,700,
NSR:Quay:71560,Rundfurubakken,64.226392,10.799362,,,NSR:StopPlace:41822,,700,
NSR:Quay:71561,Tungvågen,63.738158,8.673660,,,NSR:StopPlace:41823,,700,
NSR:Quay:71563,Rundfurubakken,64.226451,10.799212,,,NSR:StopPlace:41822,,700,
NSR:Quay:71564,Tungvågen,63.738172,8.673438,,,NSR:StopPlace:41823,,700,
NSR:Quay:71566,Ry,63.195032,9.693967,,,NSR:StopPlace:41825,,700,
NSR:Quay:71567,Ry,63.195004,9.694241,,,NSR:StopPlace:41825,,700,
NSR:Quay:71568,Østre Lund,63.350947,10.331807,Ligger i Ringvålvegen fra sentrum,,NSR:StopPlace:60258,,700,
NSR:Quay:71569,Østre Lund,63.350985,10.332491,Ligger i Ringvollvegen mot sentrum,,NSR:StopPlace:60258,,700,
NSR:Quay:71570,Hommelvik skole,63.412871,10.805823,,,NSR:StopPlace:41827,,700,
NSR:Quay:71571,Hommelvik skole,63.412967,10.805839,,,NSR:StopPlace:41827,,700,
NSR:Quay:71572,Rybrua,62.552139,11.412276,,,NSR:StopPlace:41828,,700,
NSR:Quay:71573,Rybrua,62.552026,11.412402,,,NSR:StopPlace:41828,,700,
NSR:Quay:71574,Rydland,63.302355,10.487373,,,NSR:StopPlace:41829,,700,
NSR:Quay:71575,Rydland,63.301495,10.486411,,,NSR:StopPlace:41829,,700,
NSR:Quay:71576,Tunvegen,63.424110,10.484243,,,NSR:StopPlace:41830,,700,
NSR:Quay:71577,Tunvegen,63.424908,10.484405,,,NSR:StopPlace:41830,,700,
NSR:Quay:71578,Hommelvik stasjon,63.411429,10.794853,,,NSR:StopPlace:41831,,700,
NSR:Quay:71579,Hommelvik stasjon,63.411470,10.794381,,,NSR:StopPlace:41831,,700,
NSR:Quay:71580,Rydningen,63.388279,10.353351,,,NSR:StopPlace:41832,,700,
NSR:Quay:71581,Rydningen,63.388170,10.353936,,,NSR:StopPlace:41832,,700,
NSR:Quay:71582,Turnhallen,63.851294,9.743591,,,NSR:StopPlace:41833,,700,
NSR:Quay:71583,Turnhallen,63.851299,9.743792,,,NSR:StopPlace:41833,,700,
NSR:Quay:71584,Rye,63.424769,10.149959,,,NSR:StopPlace:41834,,700,
NSR:Quay:71585,Rye,63.424848,10.150219,,,NSR:StopPlace:41834,,700,
NSR:Quay:71586,Hommelvik ungdomsskole,63.410162,10.800886,,,NSR:StopPlace:41835,,700,
NSR:Quay:71587,Rye skole,63.419077,10.147229,,,NSR:StopPlace:41836,,700,
NSR:Quay:71588,Rye skole,63.419095,10.147043,,,NSR:StopPlace:41836,,700,
NSR:Quay:71589,Tuset,63.109511,11.295643,,,NSR:StopPlace:41837,,700,
NSR:Quay:71590,Tuset,63.109513,11.295756,,,NSR:StopPlace:41837,,700,
NSR:Quay:71591,Hommelvikhøgda,63.427017,10.815117,,,NSR:StopPlace:41838,,700,
NSR:Quay:71592,Hommelvikhøgda,63.426913,10.815305,,,NSR:StopPlace:41838,,700,
NSR:Quay:71593,Ryen,62.740216,11.324520,,,NSR:StopPlace:41839,,700,
NSR:Quay:71594,Ryen,62.740212,11.324673,,,NSR:StopPlace:41839,,700,
NSR:Quay:71595,Tussan,63.104007,9.600350,,,NSR:StopPlace:41842,,700,
NSR:Quay:71596,Ryskogen,63.784985,9.714604,,,NSR:StopPlace:41840,,700,
NSR:Quay:71597,Hongrø,62.960251,10.300465,,,NSR:StopPlace:41841,,700,
NSR:Quay:71598,Tussan,63.103956,9.600401,,,NSR:StopPlace:41842,,700,
NSR:Quay:71599,Ryskogen,63.784822,9.714766,,,NSR:StopPlace:41840,,700,
NSR:Quay:71600,Hongrø,62.960359,10.300525,,,NSR:StopPlace:41841,,700,
NSR:Quay:71601,Ryttervoll,62.680585,11.674683,,,NSR:StopPlace:41843,,700,
NSR:Quay:71602,Ryttervoll,62.680554,11.674417,,,NSR:StopPlace:41843,,700,
NSR:Quay:71603,Råbygda,63.239458,9.990212,,,NSR:StopPlace:41844,,700,
NSR:Quay:71604,Råbygda,63.239433,9.990665,,,NSR:StopPlace:41844,,700,
NSR:Quay:71605,Råbygda skole Jåren,63.253121,9.971445,,,NSR:StopPlace:41845,,700,
NSR:Quay:71606,Råbygda skole Jåren,63.252786,9.970609,,,NSR:StopPlace:41845,,700,
NSR:Quay:71607,Råbygda skole Jåren,63.252911,9.971363,,,NSR:StopPlace:41845,,700,
NSR:Quay:71609,Hongsand,64.144601,10.158092,,,NSR:StopPlace:41848,,700,
NSR:Quay:71610,Tuvnes,63.726967,8.632094,,,NSR:StopPlace:41849,,700,
NSR:Quay:71611,Hongsand,64.144554,10.157480,,,NSR:StopPlace:41848,,700,
NSR:Quay:71612,Tuvnes,63.726832,8.631920,,,NSR:StopPlace:41849,,700,
NSR:Quay:71613,Råen,62.785327,11.358981,,,NSR:StopPlace:41850,,700,
NSR:Quay:71614,Råen,62.785657,11.358898,,,NSR:StopPlace:41850,,700,
NSR:Quay:71615,Råkstad,63.775941,10.104227,,,NSR:StopPlace:41851,,700,
NSR:Quay:71616,Råkstad,63.775891,10.104181,,,NSR:StopPlace:41851,,700,
NSR:Quay:71617,Råkvåg,63.761155,10.067539,,,NSR:StopPlace:41852,,700,
NSR:Quay:71618,Råkvåg,63.761195,10.067658,,,NSR:StopPlace:41852,,700,
NSR:Quay:71619,Rånes,63.930647,10.068444,,,NSR:StopPlace:41853,,700,
NSR:Quay:71620,Råneskrysset,63.944688,10.089279,,,NSR:StopPlace:41854,,700,
NSR:Quay:71621,Råneskrysset,63.944786,10.089780,,,NSR:StopPlace:41854,,700,
NSR:Quay:71622,Tverregga,63.383385,10.432378,,,NSR:StopPlace:41855,,700,
NSR:Quay:71623,Tverregga,63.383160,10.433367,,,NSR:StopPlace:41855,,700,
NSR:Quay:71624,Hongslo,63.182320,9.790752,,,NSR:StopPlace:41856,,700,
NSR:Quay:71625,Hongslo,63.182382,9.790852,,,NSR:StopPlace:41856,,700,
NSR:Quay:71626,Røa,62.597595,11.329544,,,NSR:StopPlace:41857,,700,
NSR:Quay:71627,Tveråvoll,62.951846,11.258342,,,NSR:StopPlace:41858,,700,
NSR:Quay:71628,Hopla,63.570475,9.932606,,,NSR:StopPlace:41859,,700,
NSR:Quay:71629,Tveråvoll,62.952095,11.257521,,,NSR:StopPlace:41858,,700,
NSR:Quay:71630,Hopla,63.570654,9.932475,,,NSR:StopPlace:41859,,700,
NSR:Quay:71631,Rød Sørbygda,63.097004,10.001560,,,NSR:StopPlace:41860,,700,
NSR:Quay:71632,Rødde,63.313974,10.356135,,,NSR:StopPlace:41861,,700,
NSR:Quay:71633,Tvetestien,63.417785,10.372038,,,NSR:StopPlace:41862,,700,
NSR:Quay:71634,Tvetestien,63.418174,10.372813,,,NSR:StopPlace:41862,,700,
NSR:Quay:71635,Horg kirke,63.136001,10.252760,,,NSR:StopPlace:41863,,700,
NSR:Quay:71636,Horg kirke,63.136847,10.253570,,,NSR:StopPlace:41863,,700,
NSR:Quay:71637,Rødsjøen,63.779042,10.218010,,,NSR:StopPlace:41864,,700,
NSR:Quay:71638,Rødsjøen,63.778854,10.217990,,,NSR:StopPlace:41864,,700,
NSR:Quay:71639,Horghåggån,63.141776,10.259852,,,NSR:StopPlace:41865,,700,
NSR:Quay:71640,Horghåggån,63.141525,10.259166,,,NSR:StopPlace:41865,,700,
NSR:Quay:71641,Tya,62.966558,11.758155,,,NSR:StopPlace:41866,,700,
NSR:Quay:71642,Tya,62.966460,11.759266,,,NSR:StopPlace:41866,,700,
NSR:Quay:71643,Røet,63.295933,11.076579,,,NSR:StopPlace:41867,,700,
NSR:Quay:71644,Røet,63.297103,11.076182,,,NSR:StopPlace:41867,,700,
NSR:Quay:71645,Hornebergvegen,63.393660,10.401645,,,NSR:StopPlace:41868,,700,
NSR:Quay:71646,Tydal skole,63.042020,11.668655,,,NSR:StopPlace:41869,,700,
NSR:Quay:71647,Tydal skole,63.042076,11.668666,,,NSR:StopPlace:41869,,700,
NSR:Quay:71648,Hornebergvegen,63.392628,10.399754,,,NSR:StopPlace:41868,,700,
NSR:Quay:71649,Røkbuvoll,62.682877,11.775903,,,NSR:StopPlace:41870,,700,
NSR:Quay:71650,Røkbuvoll,62.682738,11.776032,,,NSR:StopPlace:41870,,700,
NSR:Quay:71652,Tydalsenteret,63.044050,11.675288,,,NSR:StopPlace:41872,,700,
NSR:Quay:71653,Tydalsenteret,63.044620,11.675216,,,NSR:StopPlace:41872,,700,
NSR:Quay:71654,Horvlia,62.578422,9.369769,,,NSR:StopPlace:41873,,700,
NSR:Quay:71655,Horvlia,62.578428,9.370399,,,NSR:StopPlace:41873,,700,
NSR:Quay:71656,Rømme,63.300806,9.846915,,,NSR:StopPlace:41874,,700,
NSR:Quay:71657,Rømme,63.301468,9.847363,,,NSR:StopPlace:41874,,700,
NSR:Quay:71658,Tyholt,63.427475,10.432574,,,NSR:StopPlace:41875,,700,
NSR:Quay:71659,Tyholt,63.427820,10.433093,,,NSR:StopPlace:41875,,700,
NSR:Quay:71660,Rønne,63.713450,9.628237,,,NSR:StopPlace:41876,,700,
NSR:Quay:71661,Rønne,63.712670,9.628449,,,NSR:StopPlace:41876,,700,
NSR:Quay:71662,Hosen,64.054463,9.955175,,,NSR:StopPlace:41877,,700,
NSR:Quay:71663,Hosen,64.054542,9.955333,,,NSR:StopPlace:41877,,700,
NSR:Quay:71664,Rønning,62.958930,10.498473,,,NSR:StopPlace:41878,,700,
NSR:Quay:71665,Rønning,62.959056,10.498603,,,NSR:StopPlace:41878,,700,
NSR:Quay:71667,Rønningen,62.881922,10.093480,,,NSR:StopPlace:41880,,700,
NSR:Quay:71668,Rønningen,62.881691,10.092855,,,NSR:StopPlace:41880,,700,
NSR:Quay:71669,Hoset,63.236586,9.588948,,,NSR:StopPlace:41881,,700,
NSR:Quay:71670,Hoset,63.236600,9.588632,,,NSR:StopPlace:41881,,700,
NSR:Quay:71672,Rønningen,62.957911,10.273636,,,NSR:StopPlace:41883,,700,
NSR:Quay:71673,Rønningen,62.958132,10.273547,,,NSR:StopPlace:41883,,700,
NSR:Quay:71674,Hosethågån,63.229281,10.117040,,,NSR:StopPlace:41884,,700,
NSR:Quay:71675,Hosethågån,63.229292,10.116804,,,NSR:StopPlace:41884,,700,
NSR:Quay:71676,Rønningen,63.160680,9.706437,,,NSR:StopPlace:41885,,700,
NSR:Quay:71677,Rønningen,63.160698,9.706078,,,NSR:StopPlace:41885,,700,
NSR:Quay:71678,Tyholtveien,63.426780,10.441976,,,NSR:StopPlace:41882,,700,
NSR:Quay:71682,Tyve,62.615083,9.584930,,,NSR:StopPlace:41889,,700,
NSR:Quay:71683,Hospitalskirka,63.430353,10.385095,,,NSR:StopPlace:41888,,700,
NSR:Quay:71684,Tyve,62.615361,9.583133,,,NSR:StopPlace:41889,,700,
NSR:Quay:71685,Hospitalskirka,63.430241,10.382954,,,NSR:StopPlace:41888,,700,
NSR:Quay:71686,Rønningsbakken,63.437067,10.437261,,,NSR:StopPlace:41890,,700,
NSR:Quay:71687,Rønningsbakken,63.437110,10.436869,,,NSR:StopPlace:41890,,700,
NSR:Quay:71688,Tågvollan,62.605137,9.731427,,,NSR:StopPlace:41891,,700,
NSR:Quay:71689,Tågvollan,62.605077,9.731738,,,NSR:StopPlace:41891,,700,
NSR:Quay:71690,Rønningstad,63.386861,10.327020,,,NSR:StopPlace:41892,,700,
NSR:Quay:71692,Rønningsvegen,62.616827,9.756726,,,NSR:StopPlace:41894,,700,
NSR:Quay:71693,Rønningsvegen,62.615328,9.754532,,,NSR:StopPlace:41894,,700,
NSR:Quay:71694,Hoston,63.194773,9.587749,,,NSR:StopPlace:41895,,700,
NSR:Quay:71695,Hoston,63.194947,9.588079,,,NSR:StopPlace:41895,,700,
NSR:Quay:71696,Tårnes,63.955941,9.967942,,,NSR:StopPlace:41896,,700,
NSR:Quay:71697,Tårnes,63.955877,9.967051,,,NSR:StopPlace:41896,,700,
NSR:Quay:71698,Rønsberg,63.189719,11.166959,,,NSR:StopPlace:41897,,700,
NSR:Quay:71699,Rønsberg,63.189740,11.167106,,,NSR:StopPlace:41897,,700,
NSR:Quay:71700,Hov,63.308178,9.852210,Retning fra Trondheim,,NSR:StopPlace:41898,,700,
NSR:Quay:71701,Hov,63.309151,9.855230,,,NSR:StopPlace:41898,,700,
NSR:Quay:71702,Tømmervik,63.553650,8.516598,,,NSR:StopPlace:41899,,700,
NSR:Quay:71703,Rørmyra,63.355330,10.297215,,,NSR:StopPlace:41900,,700,
NSR:Quay:71704,Rørmyra,63.355360,10.297316,,,NSR:StopPlace:41900,,700,
NSR:Quay:71705,Tømmervik,63.553656,8.516341,,,NSR:StopPlace:41899,,700,
NSR:Quay:71706,Røros skole,62.577514,11.369696,,,NSR:StopPlace:41901,,700,
NSR:Quay:71707,Røros skole,62.577752,11.369192,,,NSR:StopPlace:41901,,700,
NSR:Quay:71708,Hov skole,62.842682,11.292451,,,NSR:StopPlace:41902,,700,
NSR:Quay:71709,Hov skole,62.842694,11.292363,,,NSR:StopPlace:41902,,700,
NSR:Quay:71710,Tømra,63.285175,11.073194,,,NSR:StopPlace:41903,,700,
NSR:Quay:71711,Tømra,63.285199,11.073028,,,NSR:StopPlace:41903,,700,
NSR:Quay:71712,Røros skysstasjon,62.574640,11.380071,,,NSR:StopPlace:41904,,700,
NSR:Quay:71713,Røros skysstasjon,62.574606,11.380047,,,NSR:StopPlace:41904,,700,
NSR:Quay:71714,Rørosgård,62.601344,11.329383,,,NSR:StopPlace:41906,,700,
NSR:Quay:71715,Tøndervika,63.716411,10.041217,,,NSR:StopPlace:41905,,700,
NSR:Quay:71716,Hovdan,63.191268,8.829113,,,NSR:StopPlace:41907,,700,
NSR:Quay:71717,Rørosgård,62.601292,11.329208,,,NSR:StopPlace:41906,,700,
NSR:Quay:71718,Tøndervika,63.716228,10.041356,,,NSR:StopPlace:41905,,700,
NSR:Quay:71719,Hovdan,63.191176,8.827472,,,NSR:StopPlace:41907,,700,
NSR:Quay:71720,Rørvik ferjekai,63.509587,10.140035,,,NSR:StopPlace:58663,,1000,
NSR:Quay:71721,Rørvik ferjekai,63.509586,10.138192,,,NSR:StopPlace:41908,,700,
NSR:Quay:71722,Hovdeset,63.189864,8.843742,,,NSR:StopPlace:41909,,700,
NSR:Quay:71723,Hovdeset,63.189901,8.844144,,,NSR:StopPlace:41909,,700,
NSR:Quay:71724,Tørrem,63.813470,9.707231,,,NSR:StopPlace:41910,,700,
NSR:Quay:71725,Tørrem,63.813614,9.707864,,,NSR:StopPlace:41910,,700,
NSR:Quay:71726,Rørvika,63.509552,10.137076,,,NSR:StopPlace:41911,,700,
NSR:Quay:71727,Rørvika,63.509550,10.136816,,,NSR:StopPlace:41911,,700,
NSR:Quay:71728,Hove camping,63.232598,10.130304,,,NSR:StopPlace:41912,,700,
NSR:Quay:71729,Hove camping,63.232630,10.130049,,,NSR:StopPlace:41912,,700,
NSR:Quay:71730,Røsetlåven,63.205738,11.073151,,,NSR:StopPlace:41913,,700,
NSR:Quay:71731,Røsetlåven,63.205639,11.073138,,,NSR:StopPlace:41913,,700,
NSR:Quay:71732,Tørrem veikryss,63.809213,9.682335,,,NSR:StopPlace:41914,,700,
NSR:Quay:71733,Tørrem veikryss,63.809859,9.681541,,,NSR:StopPlace:41914,,700,
NSR:Quay:71734,Røstad,63.349330,10.484932,,,NSR:StopPlace:41915,,700,
NSR:Quay:71735,Røstad,63.349262,10.486874,,,NSR:StopPlace:41915,,700,
NSR:Quay:71736,Hove,63.064143,9.629074,,,NSR:StopPlace:41916,,700,
NSR:Quay:71737,Hove,63.064030,9.629211,,,NSR:StopPlace:41916,,700,
NSR:Quay:71738,Tørresdalen,62.507871,11.550997,,,NSR:StopPlace:41917,,700,
NSR:Quay:71739,Tørresdalen,62.507451,11.551995,,,NSR:StopPlace:41917,,700,
NSR:Quay:71740,Røstvendarveien,62.564962,11.378263,,,NSR:StopPlace:41918,,700,
NSR:Quay:71741,Hovengen,62.862806,9.843780,,,NSR:StopPlace:41919,,700,
NSR:Quay:71742,Hovengen,62.862782,9.843873,,,NSR:StopPlace:41919,,700,
NSR:Quay:71743,Tørve,62.609437,9.513570,,,NSR:StopPlace:41920,,700,
NSR:Quay:71744,Tørve,62.609519,9.514010,,,NSR:StopPlace:41920,,700,
NSR:Quay:71745,Røstvoll,63.378774,9.000713,,,NSR:StopPlace:41921,,700,
NSR:Quay:71746,Røstvoll,63.379067,9.000686,,,NSR:StopPlace:41921,,700,
NSR:Quay:71747,Hovin skole,63.106293,10.225511,,,NSR:StopPlace:41922,,700,
NSR:Quay:71748,Hovin skole,63.106215,10.225438,,,NSR:StopPlace:41922,,700,
NSR:Quay:71749,Uddu,63.588516,9.925340,,,NSR:StopPlace:41923,,700,
NSR:Quay:71750,Uddu,63.588629,9.925383,,,NSR:StopPlace:41923,,700,
NSR:Quay:71751,Saga,63.503351,8.975843,,,NSR:StopPlace:41924,,700,
NSR:Quay:71752,Saga,63.503420,8.975892,,,NSR:StopPlace:41924,,700,
NSR:Quay:71753,Hovstad,62.947921,10.626979,,,NSR:StopPlace:41925,,700,
NSR:Quay:71754,Hovstad,62.948161,10.626920,,,NSR:StopPlace:41925,,700,
NSR:Quay:71755,Udduvoll bru vest,63.322394,10.265179,,,NSR:StopPlace:41926,,700,
NSR:Quay:71756,Saga,63.729225,10.065711,,,NSR:StopPlace:41927,,700,
NSR:Quay:71757,Udduvoll bru vest,63.321914,10.265366,,,NSR:StopPlace:41926,,700,
NSR:Quay:71758,Saga,63.729223,10.065486,,,NSR:StopPlace:41927,,700,
NSR:Quay:71759,Sagberget,63.245761,10.167326,,,NSR:StopPlace:41928,,700,
NSR:Quay:71760,Sagberget,63.245669,10.167525,,,NSR:StopPlace:41928,,700,
NSR:Quay:71761,Hullet,63.789774,8.683821,,,NSR:StopPlace:41929,,700,
NSR:Quay:71762,Hullet,63.789833,8.683920,,,NSR:StopPlace:41929,,700,
NSR:Quay:71763,Udduvoll bru øst,63.324291,10.277844,,,NSR:StopPlace:41930,,700,
NSR:Quay:71764,Udduvoll bru øst,63.323910,10.275993,,,NSR:StopPlace:41930,,700,
NSR:Quay:71765,Sagen,62.654484,9.802307,,,NSR:StopPlace:41931,,700,
NSR:Quay:71766,Sagen,62.654595,9.802477,,,NSR:StopPlace:41931,,700,
NSR:Quay:71767,Hulta,62.962612,10.830937,,,NSR:StopPlace:41932,,700,
NSR:Quay:71768,Uggdal,63.973968,10.384156,,,NSR:StopPlace:41933,,700,
NSR:Quay:71769,Sagmoen,63.286084,10.434981,,,NSR:StopPlace:41934,,700,
NSR:Quay:71770,Sagmoen,63.286140,10.434869,,,NSR:StopPlace:41934,,700,
NSR:Quay:71773,Ugla,63.400433,10.341434,,,NSR:StopPlace:41936,,700,
NSR:Quay:71774,Ugla,63.400750,10.341028,,,NSR:StopPlace:41936,,700,
NSR:Quay:71775,Sagplassen,63.408452,10.536152,,,NSR:StopPlace:41937,,700,
NSR:Quay:71776,Sagplassen,63.407338,10.534593,,,NSR:StopPlace:41937,,700,
NSR:Quay:71777,Humstad,63.974344,10.160545,,,NSR:StopPlace:41938,,700,
NSR:Quay:71778,Humstad,63.974436,10.161061,,,NSR:StopPlace:41938,,700,
NSR:Quay:71779,Ugla,63.400533,10.343923,,,NSR:StopPlace:41939,,900,
NSR:Quay:71781,Sakrisvoll,62.682891,11.522805,,,NSR:StopPlace:41940,,700,
NSR:Quay:71782,Sakrisvoll,62.682936,11.522732,,,NSR:StopPlace:41940,,700,
NSR:Quay:71783,Hundhamaren,63.438619,10.596716,,,NSR:StopPlace:41941,,700,
NSR:Quay:71784,Hundhamaren,63.438926,10.597590,,,NSR:StopPlace:41941,,700,
NSR:Quay:71785,Uglevegen,63.287769,10.317501,,,NSR:StopPlace:41942,,700,
NSR:Quay:71786,Uglevegen,63.287790,10.317412,,,NSR:StopPlace:41942,,700,
NSR:Quay:71787,Saksvik,63.436576,10.604693,,,NSR:StopPlace:41943,,700,
NSR:Quay:71788,Saksvik,63.437425,10.603716,,,NSR:StopPlace:41943,,700,
NSR:Quay:71789,Hunnestrøan,63.243945,9.021377,,,NSR:StopPlace:41944,,700,
NSR:Quay:71790,Ulsberg,62.748892,9.982699,,,NSR:StopPlace:41945,,700,2
NSR:Quay:71791,Hunnestrøan,63.244205,9.021218,,,NSR:StopPlace:41944,,700,
NSR:Quay:71792,Ulsberg,62.748888,9.982450,,,NSR:StopPlace:41945,,700,
NSR:Quay:71795,Trondheim hurtigbåtterminal,63.438210,10.399804,,,NSR:StopPlace:41947,,700,
NSR:Quay:71796,Ulseth,63.326492,10.482169,,,NSR:StopPlace:41948,,700,
NSR:Quay:71801,Sandbrekka,62.847724,9.843243,,,NSR:StopPlace:41950,,700,
NSR:Quay:71802,Sandbrekka,62.847812,9.843227,,,NSR:StopPlace:41950,,700,
NSR:Quay:71803,Ulvan,63.674176,9.037264,,,NSR:StopPlace:41951,,700,
NSR:Quay:71804,Ulvan,63.674105,9.037325,,,NSR:StopPlace:41951,,700,
NSR:Quay:71805,Husby,63.742841,10.094649,,,NSR:StopPlace:41952,,700,
NSR:Quay:71806,Husby,63.742962,10.094775,,,NSR:StopPlace:41952,,700,
NSR:Quay:71807,Sanden,63.345107,10.002582,,,NSR:StopPlace:41953,,700,
NSR:Quay:71808,Sanden,63.345025,10.002244,,,NSR:StopPlace:41953,,700,
NSR:Quay:71809,Ulvåg,63.593742,9.081077,,,NSR:StopPlace:41954,,700,
NSR:Quay:71810,Ulvåg,63.593657,9.081171,,,NSR:StopPlace:41954,,700,
NSR:Quay:71811,Husby,63.289790,10.485449,,,NSR:StopPlace:41955,,700,
NSR:Quay:71812,Husby,63.289870,10.485493,,,NSR:StopPlace:41955,,700,
NSR:Quay:71814,Unsholte,62.819675,11.330987,,,NSR:StopPlace:41957,,700,
NSR:Quay:71815,Unsholte,62.819043,11.331030,,,NSR:StopPlace:41957,,700,
NSR:Quay:71816,Sandhals,63.978175,10.310064,,,NSR:StopPlace:41958,,700,
NSR:Quay:71817,Sandhals,63.977990,10.310703,,,NSR:StopPlace:41958,,700,
NSR:Quay:71818,Husbykrysset,63.261161,10.050594,,,NSR:StopPlace:41959,,700,
NSR:Quay:71819,Husbykrysset,63.261824,10.051530,,,NSR:StopPlace:41959,,700,
NSR:Quay:71820,Sandmoen,63.333180,10.365206,,,NSR:StopPlace:41960,,700,
NSR:Quay:71821,Sandmoen,63.333275,10.364791,,,NSR:StopPlace:41960,,700,
NSR:Quay:71822,Ustan,63.282337,9.788215,,,NSR:StopPlace:41961,,700,
NSR:Quay:71823,Ustan,63.282366,9.788010,,,NSR:StopPlace:41961,,700,
NSR:Quay:71824,Husebytunet,63.368871,10.345149,,,NSR:StopPlace:41962,,700,
NSR:Quay:71825,Husebytunet,63.368726,10.344958,,,NSR:StopPlace:41962,,700,
NSR:Quay:71826,Sandmoen,63.501539,10.066977,,,NSR:StopPlace:41963,,700,
NSR:Quay:71827,Sandmoen,63.501467,10.067004,,,NSR:StopPlace:41963,,700,
NSR:Quay:71828,Ustgården,63.271151,11.121686,,,NSR:StopPlace:41964,,700,
NSR:Quay:71829,Husebytunet,63.369868,10.345355,,,NSR:StopPlace:41962,,700,
NSR:Quay:71830,Sandmoen 2,63.332996,10.361941,,,NSR:StopPlace:41966,,700,
NSR:Quay:71831,Sandmoen 2,63.333153,10.361709,,,NSR:StopPlace:41966,,700,
NSR:Quay:71832,Uthaug,63.725890,9.598993,,,NSR:StopPlace:41967,,700,
NSR:Quay:71833,Uthaug,63.725808,9.599267,,,NSR:StopPlace:41967,,700,
NSR:Quay:71834,Husvika,63.708696,8.580982,,,NSR:StopPlace:41968,,700,
NSR:Quay:71835,Husvika,63.708745,8.581148,,,NSR:StopPlace:41968,,700,
NSR:Quay:71836,Sandmoen E6,63.335029,10.357326,,,NSR:StopPlace:41969,,700,
NSR:Quay:71837,Sandmoen E6,63.330234,10.353678,,,NSR:StopPlace:41969,,700,
NSR:Quay:71838,Uthus,63.198833,11.049040,,,NSR:StopPlace:41970,,700,
NSR:Quay:71839,Uthus,63.198696,11.049114,,,NSR:StopPlace:41970,,700,
NSR:Quay:71840,Sandrød,62.896788,10.704441,,,NSR:StopPlace:41971,,700,
NSR:Quay:71841,Sandrød,62.896854,10.704406,,,NSR:StopPlace:41971,,700,
NSR:Quay:71842,Hyllberget,63.349760,9.272232,,,NSR:StopPlace:41972,,700,
NSR:Quay:71843,Rota sandsilo,63.429990,10.766966,,,NSR:StopPlace:41973,,700,
NSR:Quay:71844,Hysnes Helsefort,63.629039,9.825227,,,NSR:StopPlace:41974,,700,
NSR:Quay:71845,Hysnes Helsefort,63.629142,9.825232,,,NSR:StopPlace:41974,,700,
NSR:Quay:71846,Utleirmark,63.389660,10.413430,,,NSR:StopPlace:41975,,700,
NSR:Quay:71847,Utleirmark,63.390030,10.412191,,,NSR:StopPlace:41975,,700,
NSR:Quay:71848,Utleirmark,63.389304,10.411971,,,NSR:StopPlace:41975,,700,
NSR:Quay:71849,Sandsiloen Rota,63.430019,10.766701,,,NSR:StopPlace:41976,,700,
NSR:Quay:71850,Hasselvika hurtigbåtkai,63.633617,9.826476,,,NSR:StopPlace:41977,,1000,
NSR:Quay:71852,Utro,64.187045,10.207860,,,NSR:StopPlace:41978,,700,
NSR:Quay:71854,Sandstad,63.521745,9.104823,,,NSR:StopPlace:41979,,700,
NSR:Quay:71855,Utset,63.579923,9.132619,,,NSR:StopPlace:41980,,700,
NSR:Quay:71856,Hyttbakken,63.201811,11.134123,,,NSR:StopPlace:41981,,700,
NSR:Quay:71857,Utset,63.579650,9.132533,,,NSR:StopPlace:41980,,700,
NSR:Quay:71858,Hyttbakken,63.201859,11.133962,,,NSR:StopPlace:41981,,700,
NSR:Quay:71859,Sandstad,63.804622,9.663256,,,NSR:StopPlace:41982,,700,
NSR:Quay:71860,Hyttfossen,63.259947,10.455795,,,NSR:StopPlace:41983,,700,
NSR:Quay:71861,Hitra hurtigbåtterminal,63.517560,9.111582,,,NSR:StopPlace:41984,,700,
NSR:Quay:71862,Hyttfossen,63.260079,10.455878,,,NSR:StopPlace:41983,,700,
NSR:Quay:71863,Hitra hurtigbåtterminal,63.517521,9.113117,,,NSR:StopPlace:74009,,1000,
NSR:Quay:71864,Utsikten,62.563335,11.366343,,,NSR:StopPlace:41985,,700,
NSR:Quay:71865,Sandstad Circle K,63.521055,9.107478,,,NSR:StopPlace:41986,,700,
NSR:Quay:71866,Utstrand,63.725923,9.622293,,,NSR:StopPlace:41987,,700,
NSR:Quay:71867,Håggån,63.073236,10.265267,,,NSR:StopPlace:41988,,700,
NSR:Quay:71868,Utstrand,63.725994,9.622183,,,NSR:StopPlace:41987,,700,
NSR:Quay:71869,Håggån,63.070996,10.267705,,,NSR:StopPlace:41988,,700,
NSR:Quay:71870,Sandstad vegstasjon,63.525094,9.074841,,,NSR:StopPlace:41989,,700,
NSR:Quay:71871,Sandstad vegstasjon,63.525170,9.075069,,,NSR:StopPlace:41989,,700,
NSR:Quay:71872,Uttian,63.766670,8.868075,,,NSR:StopPlace:41990,,700,
NSR:Quay:71873,Håkkåran,62.606242,9.633046,,,NSR:StopPlace:41991,,700,
NSR:Quay:71874,Håkkåran,62.606286,9.633564,,,NSR:StopPlace:41991,,700,
NSR:Quay:71876,Sandstaddalen,63.523440,9.090688,,,NSR:StopPlace:41992,,700,
NSR:Quay:71877,Uttiankrysset,63.761074,8.814224,,,NSR:StopPlace:41993,,700,
NSR:Quay:71878,Hammerbekkrysset,62.572269,9.384535,,,NSR:StopPlace:41994,,700,
NSR:Quay:71879,Uttiankrysset,63.760949,8.814525,,,NSR:StopPlace:41993,,700,
NSR:Quay:71880,Sandvik,63.749118,8.681670,,,NSR:StopPlace:41995,,700,
NSR:Quay:71881,Sandvik,63.748955,8.681519,,,NSR:StopPlace:41995,,700,
NSR:Quay:71882,Sandvik,63.265555,10.986843,,,NSR:StopPlace:41996,,700,
NSR:Quay:71883,Sandvik,63.265591,10.986741,,,NSR:StopPlace:41996,,700,
NSR:Quay:71884,Vahl,63.829456,9.676985,,,NSR:StopPlace:41997,,700,
NSR:Quay:71885,Sandvika,63.244331,10.160055,,,NSR:StopPlace:41998,,700,
NSR:Quay:71886,Sandvika,63.244154,10.161790,,,NSR:StopPlace:41998,,700,
NSR:Quay:71887,Vahl,63.829343,9.676597,,,NSR:StopPlace:41997,,700,
NSR:Quay:71888,Hårberg,63.646414,9.840156,,,NSR:StopPlace:41999,,700,
NSR:Quay:71889,Hårberg,63.646418,9.840247,,,NSR:StopPlace:41999,,700,
NSR:Quay:71890,Sandviksberget,64.327156,10.446335,,,NSR:StopPlace:42000,,700,
NSR:Quay:71891,Valen,63.721317,8.614992,,,NSR:StopPlace:42001,,700,
NSR:Quay:71892,Sandviksberget,64.327209,10.446324,,,NSR:StopPlace:42000,,700,
NSR:Quay:71893,Valen,63.721236,8.614612,,,NSR:StopPlace:42001,,700,
NSR:Quay:71895,Hårberg,63.698340,9.639119,,,NSR:StopPlace:42002,,700,
NSR:Quay:71896,Sandviksberget hurtigbåtkai,64.328480,10.446189,,,NSR:StopPlace:42003,,1000,
NSR:Quay:71897,Valentinlyst,63.424496,10.440261,,,NSR:StopPlace:42004,,700,
NSR:Quay:71898,Valentinlyst,63.424670,10.440730,,,NSR:StopPlace:42004,,700,
NSR:Quay:71900,Hårsaker,63.509028,10.031628,,,NSR:StopPlace:42006,,700,
NSR:Quay:71901,Hårsaker,63.509000,10.032274,,,NSR:StopPlace:42006,,700,
