stop_id,stop_code,stop_name,stop_desc,stop_lat,stop_lon,zone_id,stop_url,location_type,parent_station,wheelchair_boarding,stop_timezone,platform_code,vehicle_type
NSR:StopPlace:43687,,Persaunet leir,,63.431545,10.441777,,,1,,2,,,700
NSR:StopPlace:46714,,Brumoen,,64.58237,11.001293,,,1,,2,,,700
NSR:StopPlace:42355,,Slakthuset,,63.38525,10.407559,,,1,,2,,,700
NSR:StopPlace:46713,,Sandmohavn,,64.56787,11.054899,,,1,,2,,,700
NSR:StopPlace:43686,,Esphaugen,,63.099464,10.128863,,,1,,2,,,700
NSR:StopPlace:43685,,Bergheim,,62.785275,9.996791,,,1,,2,,,700
NSR:StopPlace:42354,,Hallfred Høyems veg,,63.41975,10.467439,,,1,,2,,,700
NSR:StopPlace:46715,,Frisendal vegdele,,64.58833,10.976572,,,1,,2,,,700
NSR:StopPlace:42352,,Skåveien,,63.115818,9.699876,,,1,,2,,,700
NSR:StopPlace:43683,,Esp østre,,63.39108,10.126034,,,1,,2,,,700
NSR:StopPlace:43682,,Ranheim,,63.425083,10.533758,,,1,,2,,,700
NSR:StopPlace:46717,,Frisendal,,64.55858,10.952692,,,1,,2,,,700
NSR:StopPlace:42351,,Hallansvingen,,63.314262,10.416537,,,1,,2,,,700
NSR:StopPlace:42350,,Vågan,,63.45563,9.286394,,,1,,2,,,700
NSR:StopPlace:43681,,Bergheim,,63.410175,10.455694,,,1,,2,,,700
NSR:StopPlace:43680,,Esp meieri,,63.32799,10.323592,,,1,,2,,,700
NSR:StopPlace:46710,,Nesset,,64.46606,10.73152,,,1,,2,,,700
NSR:StopPlace:42359,,Vågen,,63.48174,8.768649,,,1,,2,,,700
NSR:StopPlace:43689,,Bergheim snuplass,,63.408836,10.456667,,,1,,2,,,700
NSR:StopPlace:46712,,Sandmoen,,64.56472,11.065207,,,1,,2,,,700
NSR:StopPlace:43688,,Esplykkja,,63.33471,10.3326,,,1,,2,,,700
NSR:StopPlace:46711,,Kvaløysæter,,64.47084,10.700355,,,1,,2,,,700
NSR:StopPlace:42357,,Hallgotto,,63.240997,11.055421,,,1,,2,,,700
NSR:StopPlace:42367,,Løkkjbekken,,62.652626,9.865346,,,1,,2,,,700
NSR:StopPlace:43698,,Perstu,,63.362934,10.192611,,,1,,2,,,700
NSR:StopPlace:42366,,Hallset,,62.612896,9.750528,,,1,,2,,,700
NSR:StopPlace:42365,,Vårum,,63.499554,10.080061,,,1,,2,,,700
NSR:StopPlace:43696,,Bergsli gate,,63.427414,10.367684,,,1,,2,,,900
NSR:StopPlace:43695,,Espåsen,,63.09068,10.055261,,,1,,2,,,700
NSR:StopPlace:42364,,Sletta,,63.48076,9.783932,,,1,,2,,,700
NSR:StopPlace:43694,,Bergmyran,,63.75509,10.43972,,,1,,2,,,700
NSR:StopPlace:42362,,Vårhus,,62.94047,11.086304,,,1,,2,,,700
NSR:StopPlace:43693,,Espås,,63.345047,10.542802,,,1,,2,,,700
NSR:StopPlace:42360,,Hallguttu,,63.243702,9.77093,,,1,,2,,,700
NSR:StopPlace:43691,,Espnes,,63.7189,8.59649,,,1,,2,,,700
NSR:StopPlace:43690,,Bergli,,63.714176,8.591275,,,1,,2,,,700
NSR:StopPlace:42369,,Hallset,,62.93359,10.315632,,,1,,2,,,700
NSR:StopPlace:43699,,Bergslia,,63.053432,9.702622,,,1,,2,,,700
NSR:StopPlace:42368,,Våttålia,,63.289684,10.103869,,,1,,2,,,700
NSR:StopPlace:42378,,Lønset v/butikken,,62.583397,9.344209,,,1,,2,,,700
NSR:StopPlace:45404,,Kippe,,64.057755,11.75449,,,1,,2,,,700
NSR:StopPlace:42377,,Halstein gård,,63.368656,10.403186,,,1,,2,,,700
NSR:StopPlace:45405,,Verdal vgs.,,63.795403,11.503517,,,1,,2,,,700
NSR:StopPlace:42376,,Være Ranheimsvegen,,63.430294,10.564271,,,1,,2,,,700
NSR:StopPlace:45406,,Reitanvegen,,64.05595,11.69763,,,1,,2,,,700
NSR:StopPlace:46738,,Østre,,64.85583,11.188709,,,1,,2,,,700
NSR:StopPlace:42374,,Halstad,,63.414753,10.780672,,,1,,2,,,700
NSR:StopPlace:45408,,Kirkehaug,,63.795635,11.508928,,,1,,2,,,700
NSR:StopPlace:46739,,Austafjord skole,,64.91833,10.942182,,,1,,2,,,700
NSR:StopPlace:42373,,Væktarstua,,62.908066,11.893071,,,1,,2,,,700
NSR:StopPlace:42372,,Løkli,,62.908672,10.12758,,,1,,2,,,700
NSR:StopPlace:42371,,Våvatnet,,63.32149,9.528713,,,1,,2,,,700
NSR:StopPlace:42370,,Halsen,,63.409695,9.959512,,,1,,2,,,700
NSR:StopPlace:45400,,Betania,,63.92453,11.456768,,,1,,2,,,700
NSR:StopPlace:45401,,Nesset,,63.877045,11.60086,,,1,,2,,,700
NSR:StopPlace:45402,,Verdal bo- og helsetun,,63.795105,11.496158,,,1,,2,,,700
NSR:StopPlace:42379,,Haltdalen Coop,,62.92448,11.152943,,,1,,2,,,700
NSR:StopPlace:45403,,Ness oppvekstsenter,,63.761948,11.61521,,,1,,2,,,700
NSR:StopPlace:42389,,Løvrød,,62.88944,10.704968,,,1,,2,,,700
NSR:StopPlace:45415,,Kulstadvika,,63.86687,11.601905,,,1,,2,,,700
NSR:StopPlace:42388,,Haltstrand,,63.992443,10.052169,,,1,,2,,,700
NSR:StopPlace:45416,,Campus Guldbergaunet,,64.020966,11.513287,,,1,,2,,,700
NSR:StopPlace:46746,,Staulan,,64.92039,10.851732,,,1,,2,,,700
NSR:StopPlace:42387,,Væresholmen,,63.433365,10.575353,,,1,,2,,,700
NSR:StopPlace:45417,,Teglverket,,63.794518,11.536825,,,1,,2,,,700
NSR:StopPlace:42386,,Løvby,,63.11233,9.699783,,,1,,2,,,700
NSR:StopPlace:45419,,Kjærhaugvegen,,63.784054,11.470911,,,1,,2,,,700
NSR:StopPlace:42385,,Halten kai,,64.17173,9.40798,,,1,,2,,,1000
NSR:StopPlace:42384,,Væresbakken,,63.431274,10.583987,,,1,,2,,,700
NSR:StopPlace:42383,,Haltdalen oppvekstsenter,,62.920105,11.170632,,,1,,2,,,700
NSR:StopPlace:42382,,Være østre,,63.431793,10.579195,,,1,,2,,,700
NSR:StopPlace:42381,,Løvaasveien,,63.33757,10.370118,,,1,,2,,,700
NSR:StopPlace:42380,,Være Væretrøa,,63.43144,10.569505,,,1,,2,,,700
NSR:StopPlace:46741,,Valaunet,,64.91161,11.12465,,,1,,2,,,700
NSR:StopPlace:45410,,Slottet,,63.796154,11.528258,,,1,,2,,,700
NSR:StopPlace:46740,,Dragskorsen,,64.92877,11.079214,,,1,,2,,,700
NSR:StopPlace:46743,,Moen,,64.92531,11.327773,,,1,,2,,,700
NSR:StopPlace:45411,,Jøssås,,63.75858,11.726088,,,1,,2,,,700
NSR:StopPlace:45412,,Solhaug,,64.03618,11.551531,,,1,,2,,,700
NSR:StopPlace:46742,,Juvika,,64.89933,11.280639,,,1,,2,,,700
NSR:StopPlace:45413,,Haug,,63.795345,11.517592,,,1,,2,,,700
NSR:StopPlace:45414,,Klepparvegen,,64.03587,11.550671,,,1,,2,,,700
NSR:StopPlace:45426,,Lundskammen,,63.838367,11.661071,,,1,,2,,,700
NSR:StopPlace:45427,,Ydsekorsen,,63.81264,11.467863,,,1,,2,,,700
NSR:StopPlace:42399,,Hammer,,63.261616,11.109899,,,1,,2,,,700
NSR:StopPlace:42398,,Værnes ferjekai,,63.58106,9.509576,,,1,,2,,,700
NSR:StopPlace:45429,,Kvistad,,63.814686,11.465151,,,1,,2,,,700
NSR:StopPlace:42396,,Hammer,,63.552567,10.081283,,,1,,2,,,700
NSR:StopPlace:42395,,Værestrøa,,63.43402,10.586965,,,1,,2,,,700
NSR:StopPlace:42393,,Hamarvika,,63.703552,8.818429,,,1,,2,,,700
NSR:StopPlace:42392,,Løvåsvegen,,62.921886,11.164578,,,1,,2,,,700
NSR:StopPlace:42390,,Hamarvik S-lag,,63.69882,8.803227,,,1,,2,,,700
NSR:StopPlace:45420,,Sellisvingen,,64.0386,11.487424,,,1,,2,,,700
NSR:StopPlace:45421,,Sandslia,,63.82208,11.526745,,,1,,2,,,700
NSR:StopPlace:45422,,Kjæran,,63.782,11.472687,,,1,,2,,,700
NSR:StopPlace:45423,,Steinkjer stasjon,,64.01261,11.495423,,,1,,2,,,700
NSR:StopPlace:45424,,Verdalsøra ungdomsskole,,63.801,11.482958,,,1,,2,,,700
NSR:StopPlace:45425,,Steinbrua,,64.02268,11.495232,,,1,,2,,,700
NSR:StopPlace:44106,,Øfsti,,63.450813,11.056127,,,1,,2,,,700
NSR:StopPlace:45438,,Fleskhus,,63.820236,11.456738,,,1,,2,,,700
NSR:StopPlace:44107,,Gran,,64.2323,12.316565,,,1,,2,,,700
NSR:StopPlace:44108,,Børstad,,63.485565,11.058082,,,1,,2,,,700
NSR:StopPlace:45439,,Byaenget,,64.02584,11.502798,,,1,,2,,,700
NSR:StopPlace:44109,,Granbrua,,64.234215,12.326145,,,1,,2,,,700
NSR:StopPlace:41070,,Olderbakken,,63.313847,8.625218,,,1,,2,,,700
NSR:StopPlace:45430,,Vammen,,64.02623,11.480088,,,1,,2,,,700
NSR:StopPlace:44100,,Grefstad Bil,,63.11937,9.7036,,,1,,2,,,700
NSR:StopPlace:45431,,Helgåsen,,63.820347,12.098391,,,1,,2,,,700
NSR:StopPlace:44101,,Grendstad,,63.259953,10.52182,,,1,,2,,,700
NSR:StopPlace:45432,,Egge barneskole,,64.0286,11.483787,,,1,,2,,,700
NSR:StopPlace:45433,,Åkerhus,,63.817547,11.443318,,,1,,2,,,700
NSR:StopPlace:44102,,Grendstuggu By,,63.230724,9.763102,,,1,,2,,,700
NSR:StopPlace:45434,,Egge ungdomsskole,,64.03256,11.483691,,,1,,2,,,700
NSR:StopPlace:44103,,Grennstuggu,,63.112892,9.994582,,,1,,2,,,700
NSR:StopPlace:44104,,Brønstad,,64.22973,12.306293,,,1,,2,,,700
NSR:StopPlace:45435,,Bårdshaugen,,63.82262,11.413154,,,1,,2,,,700
NSR:StopPlace:44105,,Vasslia Aglen,,64.6323,11.095847,,,1,,2,,,700
NSR:StopPlace:45436,,Valstadmoen,,63.76707,11.521916,,,1,,2,,,700
NSR:StopPlace:44117,,Hegra stasjon,,63.460827,11.103911,,,1,,2,,,700
NSR:StopPlace:44118,,Berg Sørbygda,,64.24587,12.422348,,,1,,2,,,700
NSR:StopPlace:44119,,Nagelhus vest,,64.24601,12.42573,,,1,,2,,,700
NSR:StopPlace:45440,,Sørskaget,,63.81639,11.415641,,,1,,2,,,700
NSR:StopPlace:44110,,Husvik,,64.53534,11.320182,,,1,,2,,,700
NSR:StopPlace:45441,,Kålen,,63.768353,11.555434,,,1,,2,,,700
NSR:StopPlace:45442,,Steinvika,,64.013885,11.45278,,,1,,2,,,700
NSR:StopPlace:44111,,Sannesmo,,64.23837,12.336305,,,1,,2,,,700
NSR:StopPlace:44112,,Palestina,,63.45909,11.094938,,,1,,2,,,700
NSR:StopPlace:45443,,Lein øst,,63.813114,11.544431,,,1,,2,,,700
NSR:StopPlace:44113,,Vinje,,64.243286,12.360942,,,1,,2,,,700
NSR:StopPlace:45444,,Lerkehaug,,63.98964,11.500657,,,1,,2,,,700
NSR:StopPlace:44114,,Lauvhammerhaugen,,64.459145,11.550651,,,1,,2,,,700
NSR:StopPlace:45445,,Forbregd nord,,63.812695,11.552792,,,1,,2,,,700
NSR:StopPlace:45446,,Melbygraven,,63.76144,11.631105,,,1,,2,,,700
NSR:StopPlace:45447,,Sørlia,,63.995953,11.465684,,,1,,2,,,700
NSR:StopPlace:44116,,Furnes,,64.46278,11.560878,,,1,,2,,,700
NSR:StopPlace:44128,,Skjervoldsmo,,63.4897,10.823913,,,1,,2,,,700
NSR:StopPlace:45459,,Vaterholm,,63.787514,11.611519,,,1,,2,,,700
NSR:StopPlace:44129,,Svea,,64.44094,11.512575,,,1,,2,,,700
NSR:StopPlace:37831,,Vean,,63.31108,8.602226,,,1,,2,,,700
NSR:StopPlace:45450,,Guddingstua,,63.76123,11.645615,,,1,,2,,,700
NSR:StopPlace:45451,,Stiklestad skole,,63.79986,11.562362,,,1,,2,,,700
NSR:StopPlace:44120,,Vik Spillum,,64.46556,11.588408,,,1,,2,,,700
NSR:StopPlace:44121,,Prestgårdsfeltet,,63.47018,11.117125,,,1,,2,,,700
NSR:StopPlace:44122,,Bomo,,64.25815,12.460484,,,1,,2,,,700
NSR:StopPlace:45453,,Sørenget,,63.79129,11.566227,,,1,,2,,,700
NSR:StopPlace:44123,,Ryggvold vest,,64.26536,12.486437,,,1,,2,,,700
NSR:StopPlace:45455,,Prestmo,,63.791836,11.593964,,,1,,2,,,700
NSR:StopPlace:44124,,Smedhaugen,,63.475224,11.12631,,,1,,2,,,700
NSR:StopPlace:44125,,Buret,,64.444145,11.515884,,,1,,2,,,700
NSR:StopPlace:45456,,Fagerheim,,64.02109,11.542802,,,1,,2,,,700
NSR:StopPlace:44126,,Agle øst,,64.27794,12.528383,,,1,,2,,,700
NSR:StopPlace:45457,,Finnmyra,,63.75909,11.679381,,,1,,2,,,700
NSR:StopPlace:44127,,Hammeraunan,,64.208305,12.024295,,,1,,2,,,700
NSR:StopPlace:45458,,AMFI,,64.010056,11.491213,,,1,,2,,,700
NSR:StopPlace:60182,,Eldavegen,,64.11972,11.315677,,,1,,2,,,700
NSR:StopPlace:44931,,Hagen,,63.683144,10.627319,,,1,,2,,,700
NSR:StopPlace:44932,,Skogrud,,64.446915,11.866516,,,1,,2,,,700
NSR:StopPlace:60183,,Følling barnehage,,64.10983,11.569955,,,1,,2,,,700
NSR:StopPlace:44933,,Venna sør,,63.47228,11.049286,,,1,,2,,,700
NSR:StopPlace:44934,,Røstad,,63.677864,10.635676,,,1,,2,,,700
NSR:StopPlace:44935,,Jossiasvegen,,63.45776,10.959611,,,1,,2,,,700
NSR:StopPlace:60186,,Rein,,64.05057,11.57959,,,1,,2,,,700
NSR:StopPlace:60187,,Reitlostubben,,64.101746,11.642429,,,1,,2,,,700
NSR:StopPlace:44936,,Brudalen,,64.46936,11.899897,,,1,,2,,,700
NSR:StopPlace:44937,,Bjerkan nedre,,63.67832,10.646154,,,1,,2,,,700
NSR:StopPlace:44938,,Hoven,,63.512154,11.052823,,,1,,2,,,700
NSR:StopPlace:60185,,Myrtun,,64.11523,11.441209,,,1,,2,,,700
NSR:StopPlace:44939,,Graven,,63.679207,10.657881,,,1,,2,,,700
NSR:StopPlace:43609,,Osbrua,,63.399673,10.524172,,,1,,2,,,700
NSR:StopPlace:43608,,Barøy,,63.917774,9.972043,,,1,,2,,,700
NSR:StopPlace:43607,,Eklesbakken,,63.3575,10.440855,,,1,,2,,,700
NSR:StopPlace:43606,,Barset,,63.82975,9.81179,,,1,,2,,,700
NSR:StopPlace:43605,,Osbakken,,63.40127,10.518171,,,1,,2,,,700
NSR:StopPlace:60188,,Reitlovegen,,64.11317,11.659305,,,1,,2,,,700
NSR:StopPlace:43604,,Einskifte,,63.83353,9.691544,,,1,,2,,,700
NSR:StopPlace:43603,,Barman oppvekstsenter,,63.622356,8.848703,,,1,,2,,,700
NSR:StopPlace:43602,,Einbakken,,63.387318,10.418236,,,1,,2,,,700
NSR:StopPlace:43601,,Barhalsen,,63.19911,8.9561,,,1,,2,,,700
NSR:StopPlace:43600,,Orvos,,62.628304,11.381064,,,1,,2,,,700
NSR:StopPlace:44930,,Korstad,,63.504883,11.082629,,,1,,2,,,700
NSR:StopPlace:43610,,Eklestrø,,63.352924,10.435899,,,1,,2,,,700
NSR:StopPlace:44942,,Kroabrua,,63.673943,10.629109,,,1,,2,,,700
NSR:StopPlace:44943,,Grindstad,,63.48145,11.224465,,,1,,2,,,700
NSR:StopPlace:44945,,Kroa,,63.67391,10.634417,,,1,,2,,,700
NSR:StopPlace:44946,,Nordhøy,,64.475426,11.850898,,,1,,2,,,700
NSR:StopPlace:44947,,Skårrånfeltet,,63.472794,11.1127,,,1,,2,,,700
NSR:StopPlace:44948,,Leksvik vgs.,,63.67841,10.618946,,,1,,2,,,700
NSR:StopPlace:44949,,Myrset Hammer,,64.461784,11.8139,,,1,,2,,,700
NSR:StopPlace:43618,,Bekken,,63.673527,8.581452,,,1,,2,,,700
NSR:StopPlace:43617,,Elistranda,,63.334534,10.065811,,,1,,2,,,700
NSR:StopPlace:43616,,Bekkasinvegen,,63.346966,10.346127,,,1,,2,,,700
NSR:StopPlace:43615,,Elgåsen,,63.22231,10.0172,,,1,,2,,,700
NSR:StopPlace:43614,,Osbrua,,63.287018,9.695879,,,1,,2,,,700
NSR:StopPlace:43613,,Beian,,63.65561,9.568581,,,1,,2,,,700
NSR:StopPlace:44940,,Nordbakk,,63.472652,11.217017,,,1,,2,,,700
NSR:StopPlace:43612,,Ekra,,63.31714,10.296734,,,1,,2,,,700
NSR:StopPlace:44941,,Ryggahøgda,,64.479706,11.865604,,,1,,2,,,700
NSR:StopPlace:43611,,Bastuvik,,63.537003,9.138104,,,1,,2,,,700
NSR:StopPlace:44953,,Krabseth,,63.683647,10.579177,,,1,,2,,,700
NSR:StopPlace:43620,,Ellingsgården,,63.228767,9.387789,,,1,,2,,,700
NSR:StopPlace:44954,,Sørbu,,64.47951,11.828982,,,1,,2,,,700
NSR:StopPlace:44955,,Elvran kapell,,63.393356,11.065271,,,1,,2,,,700
NSR:StopPlace:44956,,Elvheim,,64.48296,11.823755,,,1,,2,,,700
NSR:StopPlace:44957,,Steinavegen vegdele,,63.670647,10.599763,,,1,,2,,,700
NSR:StopPlace:44958,,Kyllofallet,,63.465622,11.068076,,,1,,2,,,700
NSR:StopPlace:44959,,Nordgårdan,,64.48877,11.808012,,,1,,2,,,700
NSR:StopPlace:43629,,Osen,,64.29866,10.51137,,,1,,2,,,700
NSR:StopPlace:43628,,Bell skole/Selbu ungdomsskole,,63.226353,11.03386,,,1,,2,,,700
NSR:StopPlace:43626,,Beknes snuplass,,63.64163,8.707676,,,1,,2,,,700
NSR:StopPlace:38280,,Innreitan,,63.04368,8.236306,,,1,,2,,,700
NSR:StopPlace:44950,,Forradal oppvekstsenter,,63.49646,11.356306,,,1,,2,,,700
NSR:StopPlace:43624,,Osen,,63.396923,10.524528,,,1,,2,,,700
NSR:StopPlace:44951,,Lerstad,,63.683548,10.592322,,,1,,2,,,700
NSR:StopPlace:43622,,Elvemo,,63.968914,10.265255,,,1,,2,,,700
NSR:StopPlace:44952,,Stræte,,63.43702,11.030554,,,1,,2,,,700
NSR:StopPlace:42301,,Vollan X,,62.57606,9.630552,,,1,,2,,,700
NSR:StopPlace:60193,,Sparbu stasjon,,63.919098,11.429209,,,1,,2,,,700
NSR:StopPlace:44964,,Brandsås,,63.67455,10.583102,,,1,,2,,,700
NSR:StopPlace:43632,,Elveng østre,,63.808136,10.143277,,,1,,2,,,700
NSR:StopPlace:44965,,Austkil,,63.44541,11.259254,,,1,,2,,,700
NSR:StopPlace:43631,,Belsvik,,63.413166,9.041393,,,1,,2,,,700
NSR:StopPlace:60194,,Sveian,,64.103745,11.507009,,,1,,2,,,700
NSR:StopPlace:60191,,Skillegrind snuplass,,63.976307,11.923926,,,1,,2,,,700
NSR:StopPlace:43630,,Elveng skole,,63.80399,10.108002,,,1,,2,,,700
NSR:StopPlace:44967,,Oppdal,,64.44209,11.912512,,,1,,2,,,700
NSR:StopPlace:60192,,Slettvollvegen,,64.10285,11.435952,,,1,,2,,,700
NSR:StopPlace:44968,,Leirfall E14 vegdele,,63.463985,11.169888,,,1,,2,,,700
NSR:StopPlace:44969,,Steen,,63.621918,10.529205,,,1,,2,,,700
NSR:StopPlace:42309,,Skottvoll,,63.30921,10.289422,,,1,,2,,,700
NSR:StopPlace:43639,,Osen Torget,,64.29652,10.512264,,,1,,2,,,700
NSR:StopPlace:43638,,Bendiksvoll,,62.68359,11.512282,,,1,,2,,,700
NSR:StopPlace:42306,,Skola,,63.988117,10.202435,,,1,,2,,,700
NSR:StopPlace:43637,,Engan,,64.262764,10.617662,,,1,,2,,,700
NSR:StopPlace:44960,,Liabakk,,63.671436,10.592065,,,1,,2,,,700
NSR:StopPlace:43636,,Bendbrua,,62.846355,11.232933,,,1,,2,,,700
NSR:StopPlace:42305,,H.A. Garasje,,63.112587,9.993224,,,1,,2,,,700
NSR:StopPlace:42304,,Vollan skole,,62.575466,9.63342,,,1,,2,,,700
NSR:StopPlace:44961,,Dalsnes bru,,63.48628,11.288207,,,1,,2,,,700
NSR:StopPlace:43635,,Elvheim,,63.39782,10.387144,,,1,,2,,,700
NSR:StopPlace:44962,,Solstad,,64.44668,11.804622,,,1,,2,,,700
NSR:StopPlace:42303,,Skogås,,62.79795,11.191388,,,1,,2,,,700
NSR:StopPlace:44963,,Tylda,,63.49074,11.25929,,,1,,2,,,700
NSR:StopPlace:43633,,Belvedere,,63.41619,10.376334,,,1,,2,,,900
NSR:StopPlace:42302,,Gåsbakken skole,,63.116985,9.969903,,,1,,2,,,700
NSR:StopPlace:42312,,Skotvold,,63.68356,9.615822,,,1,,2,,,700
NSR:StopPlace:43643,,Berdal,,63.330933,9.232995,,,1,,2,,,700
NSR:StopPlace:44975,,Bergli,,64.45477,11.925944,,,1,,2,,,700
NSR:StopPlace:43642,,Engan bru,,62.485764,9.582469,,,1,,2,,,700
NSR:StopPlace:44976,,Kvålsflotten,,63.492935,11.075031,,,1,,2,,,700
NSR:StopPlace:42311,,Vollavegkrysset,,62.841682,11.218866,,,1,,2,,,700
NSR:StopPlace:42310,,Haakon VII gate 25,,63.440216,10.460587,,,1,,2,,,700
NSR:StopPlace:44977,,Flata,,63.576015,10.369694,,,1,,2,,,700
NSR:StopPlace:43641,,Bentvollen,,62.55508,11.40555,,,1,,2,,,700
NSR:StopPlace:44978,,Fordalsrønning,,63.46642,11.184162,,,1,,2,,,700
NSR:StopPlace:43640,,Engan,,62.56483,11.306824,,,1,,2,,,700
NSR:StopPlace:44979,,Hannabekkdalen,,64.4827,11.935866,,,1,,2,,,700
NSR:StopPlace:42319,,Skreddervik,,63.581127,9.017142,,,1,,2,,,700
NSR:StopPlace:43649,,Osøy Bru,,62.942455,10.647351,,,1,,2,,,700
NSR:StopPlace:42318,,Vollmarka boligfelt,,63.28157,10.238434,,,1,,2,,,700
NSR:StopPlace:43648,,Engelsås,,63.375847,10.540363,,,1,,2,,,700
NSR:StopPlace:44970,,Oppdalneset,,64.44813,11.915767,,,1,,2,,,700
NSR:StopPlace:42317,,Vollhagen,,63.28097,10.224681,,,1,,2,,,700
NSR:StopPlace:44971,,Prestmoen øst,,63.449757,10.986853,,,1,,2,,,700
NSR:StopPlace:43647,,Berfjord,,64.1478,10.229155,,,1,,2,,,700
NSR:StopPlace:42316,,Hafsmo,,63.37405,9.238414,,,1,,2,,,700
NSR:StopPlace:42315,,Skovgård,,63.428993,10.495338,,,1,,2,,,700
NSR:StopPlace:44972,,Tangen,,63.611843,10.506356,,,1,,2,,,700
NSR:StopPlace:43646,,Engdal,,63.69122,8.595337,,,1,,2,,,700
NSR:StopPlace:43645,,Berdal,,63.99139,10.291373,,,1,,2,,,700
NSR:StopPlace:42314,,Lade idrettsanlegg,,63.443947,10.449369,,,1,,2,,,700
NSR:StopPlace:43644,,Osvegen,,63.42126,10.548682,,,1,,2,,,700
NSR:StopPlace:44974,,Oldervik,,63.59551,10.454459,,,1,,2,,,700
NSR:StopPlace:42313,,Vollberget Øvre,,62.673523,11.432741,,,1,,2,,,700
NSR:StopPlace:42323,,Skulvegen,,62.597664,9.681715,,,1,,2,,,700
NSR:StopPlace:43654,,Othilienborg,,63.40696,10.442885,,,1,,2,,,700
NSR:StopPlace:44986,,Lindgjerdet,,63.557503,10.279068,,,1,,2,,,700
NSR:StopPlace:43653,,Engsnes,,63.758766,9.634628,,,1,,2,,,700
NSR:StopPlace:42322,,Hage,,62.944782,10.3387,,,1,,2,,,700
NSR:StopPlace:44987,,Tangvold,,63.492462,11.441141,,,1,,2,,,700
NSR:StopPlace:42321,,Voltersvik,,63.76438,9.723023,,,1,,2,,,700
NSR:StopPlace:44988,,Karlsberg,,64.47319,11.74432,,,1,,2,,,700
NSR:StopPlace:43652,,Berg,,63.417686,9.516573,,,1,,2,,,700
NSR:StopPlace:44989,,Ekren,,63.433712,11.013605,,,1,,2,,,700
NSR:StopPlace:42320,,Hagavika,,62.634125,11.836269,,,1,,2,,,700
NSR:StopPlace:43651,,Engesvoll,,62.691162,11.583707,,,1,,2,,,700
NSR:StopPlace:43650,,Berg,,63.379723,10.16709,,,1,,2,,,700
NSR:StopPlace:42329,,Skyttervegen,,63.36099,10.350651,,,1,,2,,,700
NSR:StopPlace:44980,,Stegavik,,63.57227,10.348901,,,1,,2,,,700
NSR:StopPlace:44981,,Baar,,63.490036,10.830949,,,1,,2,,,700
NSR:StopPlace:43659,,Berg,,62.963585,10.174775,,,1,,2,,,700
NSR:StopPlace:42328,,Hagen,,63.37086,10.404493,,,1,,2,,,700
NSR:StopPlace:44982,,Berg Skage,,64.48058,11.715582,,,1,,2,,,700
NSR:StopPlace:42327,,Vonheim,,63.146854,10.009318,,,1,,2,,,700
NSR:StopPlace:43658,,Engvik,,62.593285,11.464105,,,1,,2,,,700
NSR:StopPlace:43657,,Berg,,63.569878,9.990714,,,1,,2,,,700
NSR:StopPlace:42326,,Skytterbanen,,63.358154,10.343101,,,1,,2,,,700
NSR:StopPlace:44983,,Storvika,,63.56341,10.328318,,,1,,2,,,700
NSR:StopPlace:42325,,Hage bru,,63.06681,10.287236,,,1,,2,,,700
NSR:StopPlace:44984,,Haugåsvegen,,63.492683,11.361628,,,1,,2,,,700
NSR:StopPlace:43656,,Engstrømbakken,,63.429424,10.542518,,,1,,2,,,700
NSR:StopPlace:44985,,Reinbjør,,64.47696,11.734613,,,1,,2,,,700
NSR:StopPlace:43655,,Berg,,63.417652,9.547645,,,1,,2,,,700
NSR:StopPlace:42324,,Vongraven,,62.774796,11.359389,,,1,,2,,,700
NSR:StopPlace:44997,,Reppa,,63.446384,10.942187,,,1,,2,,,700
NSR:StopPlace:42334,,Vormstad,,63.199947,9.767967,,,1,,2,,,700
NSR:StopPlace:42333,,Haldohaugveien,,63.29979,9.079609,,,1,,2,,,700
NSR:StopPlace:44998,,Vollakrysset,,63.54918,10.200436,,,1,,2,,,700
NSR:StopPlace:44999,,Hunn skole,,64.46238,11.765845,,,1,,2,,,700
NSR:StopPlace:42332,,Skålholt,,63.24653,9.733592,,,1,,2,,,700
NSR:StopPlace:43663,,Enmo,,62.82765,10.463756,,,1,,2,,,700
NSR:StopPlace:42331,,Vorhaug,,62.612446,9.594684,,,1,,2,,,700
NSR:StopPlace:43662,,Berg Bedehus,,63.37694,10.168847,,,1,,2,,,700
NSR:StopPlace:42330,,Hagen,,62.9242,10.229225,,,1,,2,,,700
NSR:StopPlace:43661,,Enlid,,62.86242,10.452948,,,1,,2,,,700
NSR:StopPlace:43660,,Ottersbo,,63.70715,9.773231,,,1,,2,,,700
NSR:StopPlace:44990,,Fagerli vegdele,,63.55745,10.180032,,,1,,2,,,700
NSR:StopPlace:44991,,Rødde,,63.43424,10.948157,,,1,,2,,,700
NSR:StopPlace:42339,,Haldorhamn,,63.847385,9.695982,,,1,,2,,,700
NSR:StopPlace:44992,,Skage vest,,64.46745,11.75539,,,1,,2,,,700
NSR:StopPlace:43669,,Erlivegen,,62.64574,11.414372,,,1,,2,,,700
NSR:StopPlace:44993,,Havstein,,63.55597,10.249452,,,1,,2,,,700
NSR:StopPlace:42338,,Skårdal,,62.795383,11.353642,,,1,,2,,,700
NSR:StopPlace:43668,,Bergan,,62.685974,11.384634,,,1,,2,,,700
NSR:StopPlace:44994,,Modulf Dybvad,,63.43592,10.943236,,,1,,2,,,700
NSR:StopPlace:42337,,Vormstad boligfelt,,63.19837,9.761594,,,1,,2,,,700
NSR:StopPlace:43667,,Enodd,,62.883686,10.483402,,,1,,2,,,700
NSR:StopPlace:44995,,Kleivavegen,,63.552032,10.207804,,,1,,2,,,700
NSR:StopPlace:43666,,Berg studentby,,63.413544,10.415485,,,1,,2,,,700
NSR:StopPlace:44996,,Skage øst,,64.46285,11.771679,,,1,,2,,,700
NSR:StopPlace:42335,,Skålvollen,,63.247395,10.042417,,,1,,2,,,700
NSR:StopPlace:43676,,Ervika,,63.749737,9.719649,,,1,,2,,,700
NSR:StopPlace:46703,,Einvika,,64.508675,10.807044,,,1,,2,,,700
NSR:StopPlace:42344,,Halla,,63.38737,10.776733,,,1,,2,,,700
NSR:StopPlace:46702,,Leithe,,64.50608,10.813358,,,1,,2,,,700
NSR:StopPlace:43675,,Berge,,63.20671,11.059343,,,1,,2,,,700
NSR:StopPlace:42343,,Våberg Camping,,63.52621,9.327714,,,1,,2,,,700
NSR:StopPlace:46705,,Gladsø sør,,64.486046,10.772241,,,1,,2,,,700
NSR:StopPlace:43674,,Ervik,,63.747658,8.831863,,,1,,2,,,700
NSR:StopPlace:42342,,Skårgangen,,63.3787,10.365346,,,1,,2,,,700
NSR:StopPlace:46704,,Gladsø nord,,64.49687,10.781492,,,1,,2,,,700
NSR:StopPlace:43673,,Berge,,63.74297,9.905617,,,1,,2,,,700
NSR:StopPlace:43672,,Berge,,63.397087,10.533495,,,1,,2,,,700
NSR:StopPlace:46707,,Brandsmo vegdele,,64.47195,10.790779,,,1,,2,,,700
NSR:StopPlace:42341,,Halguttu,,63.089138,10.093983,,,1,,2,,,700
NSR:StopPlace:43671,,Ersland,,63.526833,10.030965,,,1,,2,,,700
NSR:StopPlace:42340,,Vuttudal,,63.343662,9.416914,,,1,,2,,,700
NSR:StopPlace:46706,,Hilstad,,64.474236,10.780521,,,1,,2,,,700
NSR:StopPlace:43670,,Paul Skolemesters veg,,63.369682,10.394716,,,1,,2,,,700
NSR:StopPlace:46709,,Vik Vik,,64.46104,10.758123,,,1,,2,,,700
NSR:StopPlace:46708,,Trefjord,,64.46125,10.789966,,,1,,2,,,700
NSR:StopPlace:42349,,Skårillveien,,63.35526,9.389022,,,1,,2,,,700
NSR:StopPlace:42348,,Halland camping,,62.866047,10.071453,,,1,,2,,,700
NSR:StopPlace:43679,,Berggardsmyra,,63.038277,11.679823,,,1,,2,,,700
NSR:StopPlace:43678,,Ervika vegkryss,,63.753353,9.731091,,,1,,2,,,700
NSR:StopPlace:46701,,Kjærsundet,,64.50251,10.845253,,,1,,2,,,700
NSR:StopPlace:42346,,Skårild,,63.366188,9.382772,,,1,,2,,,700
NSR:StopPlace:43677,,Peder Morsets veg,,63.356457,10.362022,,,1,,2,,,700
NSR:StopPlace:46700,,Stamnes,,64.494865,10.878672,,,1,,2,,,700
NSR:StopPlace:39502,,Løset,,63.04561,9.243311,,,1,,2,,,700
NSR:StopPlace:44090,,Grande vegkryss,,63.67988,9.593304,,,1,,2,,,700
NSR:StopPlace:44091,,Grandli,,63.39376,10.544606,,,1,,2,,,700
NSR:StopPlace:44092,,Granhaugan,,63.37004,10.386084,,,1,,2,,,700
NSR:StopPlace:44093,,Granmo,,62.547718,9.631859,,,1,,2,,,700
NSR:StopPlace:44094,,Granmoen,,63.11096,9.614412,,,1,,2,,,700
NSR:StopPlace:41828,,Rybrua,,62.552055,11.412416,,,1,,2,,,700
NSR:StopPlace:44095,,Granåsen VM-anlegget,,63.379055,10.31696,,,1,,2,,,700
NSR:StopPlace:41829,,Rydland,,63.30185,10.486829,,,1,,2,,,700
NSR:StopPlace:44096,,Granåsen gård,,63.414585,10.47042,,,1,,2,,,700
NSR:StopPlace:41826,,Tunnelvegen,,63.35098,10.332224,,,1,,2,,,700
NSR:StopPlace:44097,,Granåsvegen,,63.417835,10.458768,,,1,,2,,,700
NSR:StopPlace:41827,,Hommelvik skole,,63.41293,10.805859,,,1,,2,,,700
NSR:StopPlace:44098,,Gravaune,,62.57928,9.356209,,,1,,2,,,700
NSR:StopPlace:60102,,Øverbylykkja,,63.430157,10.172444,,,1,,2,,,700
NSR:StopPlace:41824,,Hommelvik sjøside,,63.415333,10.806621,,,1,,2,,,700
NSR:StopPlace:41825,,Ry,,63.195026,9.693331,,,1,,2,,,700
NSR:StopPlace:41822,,Rundfurubakken,,64.22641,10.799271,,,1,,2,,,700
NSR:StopPlace:41823,,Tungvågen,,63.738213,8.673581,,,1,,2,,,700
NSR:StopPlace:41820,,Tungavegen,,63.41677,10.313872,,,1,,2,,,700
NSR:StopPlace:41821,,Rugelsjøen,,62.716557,11.351172,,,1,,2,,,700
NSR:StopPlace:39517,,Løsetlia,,63.041653,9.249764,,,1,,2,,,700
NSR:StopPlace:41839,,Ryen,,62.740265,11.324572,,,1,,2,,,700
NSR:StopPlace:41837,,Tuset,,63.10942,11.295654,,,1,,2,,,700
NSR:StopPlace:41838,,Hommelvikhøgda,,63.426945,10.815078,,,1,,2,,,700
NSR:StopPlace:41835,,Hommelvik ungdomsskole,,63.410133,10.801336,,,1,,2,,,700
NSR:StopPlace:41836,,Rye skole,,63.419106,10.147146,,,1,,2,,,700
NSR:StopPlace:41833,,Turnhallen,,63.85234,9.737737,,,1,,2,,,700
NSR:StopPlace:41834,,Rye,,63.425346,10.150141,,,1,,2,,,700
NSR:StopPlace:41831,,Hommelvik stasjon,,63.41145,10.794617,,,1,,2,,,700
NSR:StopPlace:41832,,Rydningen,,63.388226,10.353622,,,1,,2,,,700
NSR:StopPlace:41830,,Tunvegen,,63.424507,10.484324,,,1,,2,,,700
NSR:StopPlace:60120,,Lete,,63.260204,10.214828,,,1,,2,,,700
NSR:StopPlace:60121,,Lundamo skole,,63.15114,10.289351,,,1,,2,,,700
NSR:StopPlace:41848,,Hongsand,,64.14476,10.158705,,,1,,2,,,700
NSR:StopPlace:41849,,Tuvnes,,63.72692,8.632072,,,1,,2,,,700
NSR:StopPlace:41846,,"Råbygda skole, Jåren",,63.25306,9.971259,,,1,,2,,,700
NSR:StopPlace:41844,,Råbygda,,63.239365,9.99192,,,1,,2,,,700
NSR:StopPlace:60122,,Sjetnan,,63.24572,10.222993,,,1,,2,,,700
NSR:StopPlace:41845,,Råbygda skole Jåren,,63.25306,9.971259,,,1,,2,,,700
NSR:StopPlace:41842,,Tussan,,63.10393,9.600295,,,1,,2,,,700
NSR:StopPlace:41843,,Ryttervoll,,62.68056,11.674585,,,1,,2,,,700
NSR:StopPlace:41840,,Ryskogen,,63.785015,9.714532,,,1,,2,,,700
NSR:StopPlace:41841,,Hongrø,,62.960266,10.300503,,,1,,2,,,700
NSR:StopPlace:41850,,Råen,,62.78494,11.359024,,,1,,2,,,700
NSR:StopPlace:60119,,Kregnes,,63.23753,10.244354,,,1,,2,,,700
NSR:StopPlace:41859,,Hopla,,63.57057,9.93255,,,1,,2,,,700
NSR:StopPlace:41857,,Røa,,62.597687,11.329618,,,1,,2,,,700
NSR:StopPlace:41858,,Tveråvoll,,62.952026,11.25763,,,1,,2,,,700
NSR:StopPlace:60114,,Brekkåsen skole,,63.26975,10.231538,,,1,,2,,,700
NSR:StopPlace:41855,,Tverregga,,63.383274,10.432873,,,1,,2,,,700
NSR:StopPlace:41856,,Hongslo,,63.182327,9.790755,,,1,,2,,,700
NSR:StopPlace:41853,,Rånes,,63.93067,10.069025,,,1,,2,,,700
NSR:StopPlace:60117,,Holemsgjerdet,,63.262238,10.224479,,,1,,2,,,700
NSR:StopPlace:41854,,Råneskrysset,,63.944626,10.089678,,,1,,2,,,700
NSR:StopPlace:60118,,Hollum vegkryss,,63.262234,10.228588,,,1,,2,,,700
NSR:StopPlace:41851,,Råkstad,,63.77598,10.104023,,,1,,2,,,700
NSR:StopPlace:60115,,Brokalykkja,,63.158237,10.176677,,,1,,2,,,700
NSR:StopPlace:41852,,Råkvåg,,63.76117,10.06766,,,1,,2,,,700
NSR:StopPlace:60116,,Hjultjønna,,63.149498,10.153497,,,1,,2,,,700
NSR:StopPlace:41860,,Rød Sørbygda,,63.096714,10.001557,,,1,,2,,,700
NSR:StopPlace:41861,,Rødde,,63.313976,10.356092,,,1,,2,,,700
NSR:StopPlace:60143,,Hofles ferjekai,,64.82747,11.612267,,,1,,2,,,1000
NSR:StopPlace:41868,,Hornebergvegen,,63.393143,10.4007,,,1,,2,,,700
NSR:StopPlace:41869,,Tydal skole,,63.042103,11.668502,,,1,,2,,,700
NSR:StopPlace:41866,,Tya,,62.966534,11.758395,,,1,,2,,,700
NSR:StopPlace:60145,,Geisnes ferjekai,,64.81599,11.625407,,,1,,2,,,1000
NSR:StopPlace:41867,,Røet,,63.29654,11.076358,,,1,,2,,,700
NSR:StopPlace:41864,,Rødsjøen,,63.779297,10.217772,,,1,,2,,,700
NSR:StopPlace:41865,,Horghåggån,,63.14162,10.259587,,,1,,2,,,700
NSR:StopPlace:41862,,Tvetestien,,63.41797,10.372403,,,1,,2,,,700
NSR:StopPlace:41863,,Horg kirke,,63.13654,10.253266,,,1,,2,,,700
NSR:StopPlace:41872,,Tydalsenteret,,63.044395,11.675162,,,1,,2,,,700
NSR:StopPlace:44900,,Melhus,,63.707375,10.617457,,,1,,2,,,700
NSR:StopPlace:44901,,Halsen ungdomsskole,,63.47059,10.926111,,,1,,2,,,700
NSR:StopPlace:41870,,Røkbuvoll,,62.682728,11.776056,,,1,,2,,,700
NSR:StopPlace:44902,,Vangsnes,,64.46213,12.055785,,,1,,2,,,700
NSR:StopPlace:44903,,Kruken,,63.70965,10.605252,,,1,,2,,,700
NSR:StopPlace:44904,,Mælen bru,,63.447945,10.993449,,,1,,2,,,700
NSR:StopPlace:44905,,Skikstein,,63.691875,10.627352,,,1,,2,,,700
NSR:StopPlace:44906,,Hellstranda,,63.44511,10.88907,,,1,,2,,,700
NSR:StopPlace:44907,,Haugtun,,64.46152,12.078555,,,1,,2,,,700
NSR:StopPlace:44908,,Rosvold,,63.687397,10.62515,,,1,,2,,,700
NSR:StopPlace:44909,,Gresset øst,,63.50051,11.146004,,,1,,2,,,700
NSR:StopPlace:41877,,Hosen,,64.054504,9.955087,,,1,,2,,,700
NSR:StopPlace:41878,,Rønning,,62.958374,10.498818,,,1,,2,,,700
NSR:StopPlace:41875,,Tyholt,,63.427647,10.432834,,,1,,2,,,700
NSR:StopPlace:41876,,Rønne,,63.71452,9.627737,,,1,,2,,,700
NSR:StopPlace:41873,,Horvlia,,62.578403,9.370348,,,1,,2,,,700
NSR:StopPlace:41874,,Rømme,,63.301514,9.847305,,,1,,2,,,700
NSR:StopPlace:41882,,Tyholtveien,,63.426777,10.441958,,,1,,2,,,700
NSR:StopPlace:41883,,Rønningen,,62.958076,10.273709,,,1,,2,,,700
NSR:StopPlace:44910,,Nordtun,,64.530304,12.130266,,,1,,2,,,700
NSR:StopPlace:44911,,Rømo,,63.51344,11.084352,,,1,,2,,,700
NSR:StopPlace:41880,,Rønningen,,62.881786,10.093108,,,1,,2,,,700
NSR:StopPlace:41881,,Hoset,,63.236546,9.588504,,,1,,2,,,700
NSR:StopPlace:44914,,Skjelstad,,63.507324,11.110229,,,1,,2,,,700
NSR:StopPlace:44915,,Sandmo,,64.4626,11.659142,,,1,,2,,,700
NSR:StopPlace:39561,,Furuhaugen,,63.100357,9.344493,,,1,,2,,,700
NSR:StopPlace:44916,,Fredriksberg,,63.68461,10.631412,,,1,,2,,,700
NSR:StopPlace:44917,,Skjelstadfeltet,,63.508545,11.120802,,,1,,2,,,700
NSR:StopPlace:44918,,Myrvoll,,64.48588,11.657151,,,1,,2,,,700
NSR:StopPlace:44919,,Hegra ungdomsskole,,63.468178,11.112285,,,1,,2,,,700
NSR:StopPlace:41888,,Hospitalskirka,,63.430298,10.384591,,,1,,2,,,700
NSR:StopPlace:41889,,Tyve,,62.615227,9.584099,,,1,,2,,,700
NSR:StopPlace:41884,,Hosethågån,,63.229057,10.11682,,,1,,2,,,700
NSR:StopPlace:41885,,Rønningen,,63.16071,9.706339,,,1,,2,,,700
NSR:StopPlace:41894,,Rønningsvegen,,62.616096,9.755655,,,1,,2,,,700
NSR:StopPlace:44921,,Torvet Skjelstadmark,,63.49448,11.113172,,,1,,2,,,700
NSR:StopPlace:41891,,Tågvollan,,62.60515,9.731748,,,1,,2,,,700
NSR:StopPlace:44922,,Aune Meosen,,64.48807,11.668567,,,1,,2,,,700
NSR:StopPlace:41892,,Rønningstad,,63.386913,10.327095,,,1,,2,,,700
NSR:StopPlace:44924,,Kirkestrøket,,63.521523,11.060827,,,1,,2,,,700
NSR:StopPlace:41890,,Rønningsbakken,,63.437103,10.436995,,,1,,2,,,700
NSR:StopPlace:44926,,Meoslia,,64.486626,11.687559,,,1,,2,,,700
NSR:StopPlace:44927,,Kleiven,,63.521355,11.095355,,,1,,2,,,700
NSR:StopPlace:44929,,Fagerli,,64.45131,11.854713,,,1,,2,,,700
NSR:StopPlace:41899,,Tømmervik,,63.5537,8.516245,,,1,,2,,,700
NSR:StopPlace:41897,,Rønsberg,,63.189613,11.166709,,,1,,2,,,700
NSR:StopPlace:41898,,Hov,,63.308678,9.853832,,,1,,2,,,700
NSR:StopPlace:41895,,Hoston,,63.19496,9.588048,,,1,,2,,,700
NSR:StopPlace:41896,,Tårnes,,63.955894,9.967363,,,1,,2,,,700
NSR:StopPlace:45349,,Rinnleiret,,63.76535,11.438693,,,1,,2,,,700
NSR:StopPlace:44019,,Fætten,,63.4409,9.3052,,,1,,2,,,700
NSR:StopPlace:58663,,Rørvik ferjekai,,63.509575,10.13985,,,1,,2,,,1000
NSR:StopPlace:58665,,Valset ferjekai,,63.638744,9.687884,,,1,,2,,,1000
NSR:StopPlace:70302,,Keiserås vd.,,63.568466,10.177658,,,1,,2,,,700
NSR:StopPlace:58667,,Værnes ferjekai,,63.580837,9.509641,,,1,,2,,,1000
NSR:StopPlace:37728,,Rørdal,,63.127956,9.401458,,,1,,2,,,700
NSR:StopPlace:46671,,Snåsa skole,,64.247375,12.364281,,,1,,2,,,700
NSR:StopPlace:45340,,Ravlo snuplass,,63.745163,11.523218,,,1,,2,,,700
NSR:StopPlace:46673,,Kjerka,,64.45576,10.762179,,,1,,2,,,700
NSR:StopPlace:45341,,Mule skole,,63.75698,11.392122,,,1,,2,,,700
NSR:StopPlace:44010,,Canningen,,63.88397,9.882647,,,1,,2,,,700
NSR:StopPlace:45342,,Bogen,,64.01243,11.463464,,,1,,2,,,700
NSR:StopPlace:46672,,Strend,,64.47083,10.71807,,,1,,2,,,700
NSR:StopPlace:44012,,Fykenborg,,63.420086,10.554949,,,1,,2,,,700
NSR:StopPlace:45343,,Mulelia,,63.760868,11.405885,,,1,,2,,,700
NSR:StopPlace:46675,,Nylandet,,64.45708,10.789661,,,1,,2,,,700
NSR:StopPlace:44013,,Carl Schjetnans veg,,63.371296,10.398595,,,1,,2,,,700
NSR:StopPlace:46674,,Holsing,,64.20147,12.336361,,,1,,2,,,700
NSR:StopPlace:44014,,Casper Lundes veg,,63.367817,10.357701,,,1,,2,,,700
NSR:StopPlace:46677,,Korsvollan,,64.29864,12.338739,,,1,,2,,,700
NSR:StopPlace:45345,,Brauta,,63.77458,11.479995,,,1,,2,,,700
NSR:StopPlace:44015,,Cecilie Thoresens veg,,63.42733,10.440393,,,1,,2,,,700
NSR:StopPlace:44016,,Osen fylkesgrensa,,64.236275,10.913135,,,1,,2,,,700
NSR:StopPlace:45347,,Grønnlia,,63.76232,11.417497,,,1,,2,,,700
NSR:StopPlace:46679,,Strindmoen,,64.17531,12.087139,,,1,,2,,,700
NSR:StopPlace:45348,,Hatlinghus,,64.15058,11.54895,,,1,,2,,,700
NSR:StopPlace:44029,,Tillerterminalen,,63.360073,10.37568,,,1,,2,,,700
NSR:StopPlace:37731,,Rørdal garasje,,63.12417,9.384554,,,1,,2,,,700
NSR:StopPlace:58659,,Flakk ferjekai,,63.45114,10.201133,,,1,,2,,,1000
NSR:StopPlace:46682,,Breide,,64.20155,12.258196,,,1,,2,,,700
NSR:StopPlace:45350,,Verdalsøra barneskole,,63.800232,11.485299,,,1,,2,,,700
NSR:StopPlace:45351,,Jakob Weidemanns gate,,64.01521,11.493428,,,1,,2,,,700
NSR:StopPlace:44021,,Charlottenlund nedre,,63.433064,10.493135,,,1,,2,,,700
NSR:StopPlace:46684,,Flatanger montessoriskole,,64.453514,10.754794,,,1,,2,,,700
NSR:StopPlace:45352,,Rinnan stasjon,,63.760063,11.441002,,,1,,2,,,700
NSR:StopPlace:44022,,Charlottenlund kirke,,63.42123,10.495013,,,1,,2,,,700
NSR:StopPlace:45353,,Bilstad,,63.93153,11.622674,,,1,,2,,,700
NSR:StopPlace:44023,,Fætten,,62.848824,11.229927,,,1,,2,,,700
NSR:StopPlace:46686,,Sveberg,,64.20747,12.282509,,,1,,2,,,700
NSR:StopPlace:45354,,Rinnan øvre,,63.75902,11.449003,,,1,,2,,,700
NSR:StopPlace:44024,,Christian Jelstrups vei,,63.42893,10.356032,,,1,,2,,,700
NSR:StopPlace:45355,,Minsås,,63.81331,11.50463,,,1,,2,,,700
NSR:StopPlace:46685,,Lauvsnes skole,,64.49762,10.907627,,,1,,2,,,700
NSR:StopPlace:45356,,Steinkjer montessoriskole,,64.013916,11.478586,,,1,,2,,,700
NSR:StopPlace:44026,,Churchills veg,,63.429337,10.48742,,,1,,2,,,700
NSR:StopPlace:46687,,Utvorda oppvekstsenter,,64.584526,10.990856,,,1,,2,,,700
NSR:StopPlace:45357,,Skånes,,63.774307,11.400865,,,1,,2,,,700
NSR:StopPlace:44027,,Føll,,63.60666,10.015908,,,1,,2,,,700
NSR:StopPlace:45358,,Midjo,,64.0204,11.534339,,,1,,2,,,700
NSR:StopPlace:46689,,Fjell Dale,,64.43158,10.991653,,,1,,2,,,700
NSR:StopPlace:46691,,Dale Dale,,64.4434,10.979011,,,1,,2,,,700
NSR:StopPlace:46690,,Mediås,,64.21053,12.292392,,,1,,2,,,700
NSR:StopPlace:45360,,Roaldmarka,,63.764378,11.411895,,,1,,2,,,700
NSR:StopPlace:44030,,Gaddåsen,,63.13046,9.646872,,,1,,2,,,700
NSR:StopPlace:46693,,Kjenstad,,64.18412,12.33601,,,1,,2,,,700
NSR:StopPlace:44031,,City Syd E6,,63.361156,10.373264,,,1,,2,,,700
NSR:StopPlace:46692,,Dalehaugen,,64.44867,10.971072,,,1,,2,,,700
NSR:StopPlace:44032,,City Syd,,63.361187,10.37974,,,1,,2,,,700
NSR:StopPlace:46694,,Dalebotn,,64.45325,10.947637,,,1,,2,,,700
NSR:StopPlace:44033,,Gafset,,63.32389,10.240162,,,1,,2,,,700
NSR:StopPlace:44034,,Clara Holsts veg,,63.42895,10.435764,,,1,,2,,,700
NSR:StopPlace:45365,,Statens hus vest,,64.00765,11.50045,,,1,,2,,,700
NSR:StopPlace:46697,,Fløan Lauvsnes,,64.46917,10.911476,,,1,,2,,,700
NSR:StopPlace:44035,,Coop Nerskogen,,62.78305,9.607946,,,1,,2,,,700
NSR:StopPlace:46696,,Fløanbrekka,,64.46336,10.913001,,,1,,2,,,700
NSR:StopPlace:45366,,Storborg,,63.76131,11.368092,,,1,,2,,,700
NSR:StopPlace:45367,,Hestegrei,,63.822113,11.495466,,,1,,2,,,700
NSR:StopPlace:46699,,Lauvsnes,,64.499466,10.8947,,,1,,2,,,700
NSR:StopPlace:44036,,Galåen barnehage,,62.554256,11.287309,,,1,,2,,,700
NSR:StopPlace:45368,,Austad,,63.921207,11.610814,,,1,,2,,,700
NSR:StopPlace:46698,,Rødalen,,64.47471,10.910954,,,1,,2,,,700
NSR:StopPlace:44037,,Dalaberga,,63.13529,10.224043,,,1,,2,,,700
NSR:StopPlace:44038,,Dalan,,63.762264,9.788352,,,1,,2,,,700
NSR:StopPlace:44039,,Galåen boligfelt,,62.56099,11.295065,,,1,,2,,,700
NSR:StopPlace:70310,,Melan,,63.316235,8.663548,,,1,,2,,,700
NSR:StopPlace:45370,,Langli sør,,63.926113,11.590109,,,1,,2,,,700
NSR:StopPlace:44040,,Galåvollen boligfelt,,62.55893,11.288816,,,1,,2,,,700
NSR:StopPlace:44041,,Gamle Oslovei,,63.417534,10.353822,,,1,,2,,,700
NSR:StopPlace:44042,,Gammel-lina,,63.383934,10.365154,,,1,,2,,,700
NSR:StopPlace:45373,,Sjøbygda,,63.911194,11.36903,,,1,,2,,,700
NSR:StopPlace:44043,,Gammelbyen,,63.124027,9.696674,,,1,,2,,,700
NSR:StopPlace:45375,,Blåbyen,,64.01997,11.455197,,,1,,2,,,700
NSR:StopPlace:44044,,Gammelgarden,,63.308144,10.15656,,,1,,2,,,700
NSR:StopPlace:44045,,Gangaunet boligfelt,,63.223934,10.124413,,,1,,2,,,700
NSR:StopPlace:45377,,Bjørga Fleskhus,,63.833576,11.429192,,,1,,2,,,700
NSR:StopPlace:44046,,Gangaunet gård,,63.218685,10.124298,,,1,,2,,,700
NSR:StopPlace:44047,,Garberg,,63.101746,9.477258,,,1,,2,,,700
NSR:StopPlace:45379,,Sogneprest Krogs veg,,63.78979,11.459114,,,1,,2,,,700
NSR:StopPlace:44048,,Garberg bru,,63.24933,11.094142,,,1,,2,,,700
NSR:StopPlace:44049,,Garli,,62.890984,10.101879,,,1,,2,,,700
NSR:StopPlace:45380,,Nordkleiva,,63.82887,11.902721,,,1,,2,,,700
NSR:StopPlace:45381,,Langås Skei,,64.01995,11.602622,,,1,,2,,,700
NSR:StopPlace:44050,,Garli rasteplass,,62.9033,10.115773,,,1,,2,,,700
NSR:StopPlace:45382,,Verdal fengsel,,63.79612,11.461691,,,1,,2,,,700
NSR:StopPlace:44052,,Garlimoen,,62.889996,10.104694,,,1,,2,,,700
NSR:StopPlace:45384,,Soltun,,63.824566,11.464942,,,1,,2,,,700
NSR:StopPlace:44053,,Garten,,63.641327,9.510036,,,1,,2,,,700
NSR:StopPlace:45385,,Sagstuvegen,,63.79644,11.469492,,,1,,2,,,700
NSR:StopPlace:44054,,Garten ferjekai,,63.64485,9.52085,,,1,,2,,,700
NSR:StopPlace:44055,,Gartnerhallen,,63.4252,10.464673,,,1,,2,,,700
NSR:StopPlace:45387,,Bragstad Sparbu,,63.934578,11.434649,,,1,,2,,,700
NSR:StopPlace:44056,,Gaua boligfelt,,63.105347,10.215729,,,1,,2,,,700
NSR:StopPlace:44057,,Geilmunnet,,63.353867,10.309061,,,1,,2,,,700
NSR:StopPlace:45388,,Rogntun,,63.799435,11.465181,,,1,,2,,,700
NSR:StopPlace:44058,,Gildheim,,63.43403,10.461585,,,1,,2,,,700
NSR:StopPlace:45389,,Skjørdalen,,63.757668,11.577664,,,1,,2,,,700
NSR:StopPlace:44059,,Gildset,,62.953926,11.03831,,,1,,2,,,700
NSR:StopPlace:58691,,Brekstad ferjekai,,63.686466,9.667403,,,1,,2,,,1000
NSR:StopPlace:45390,,Fjesme,,63.968502,11.670063,,,1,,2,,,700
NSR:StopPlace:45391,,Rinnbrua,,63.76722,11.456063,,,1,,2,,,700
NSR:StopPlace:44061,,Gimsan,,63.28262,10.253612,,,1,,2,,,700
NSR:StopPlace:45392,,Byafossen skole,,64.028595,11.543795,,,1,,2,,,700
NSR:StopPlace:44062,,Gimse skole,,63.28408,10.264123,,,1,,2,,,700
NSR:StopPlace:45393,,Aksnesenget,,63.86605,11.631683,,,1,,2,,,700
NSR:StopPlace:44063,,Gimseflata,,63.27975,10.254165,,,1,,2,,,700
NSR:StopPlace:45395,,Oppem Sparbu,,63.907986,11.471568,,,1,,2,,,700
NSR:StopPlace:44064,,Gimseteigen,,63.282543,10.243919,,,1,,2,,,700
NSR:StopPlace:44065,,Gisnadalen,,62.72561,9.873877,,,1,,2,,,700
NSR:StopPlace:45396,,Dalamarka,,63.854015,11.639086,,,1,,2,,,700
NSR:StopPlace:44066,,Gisnås,,62.70322,9.936856,,,1,,2,,,700
NSR:StopPlace:44067,,Gisvold,,63.3675,10.442336,,,1,,2,,,700
NSR:StopPlace:45398,,Binde skole,,64.0926,11.713948,,,1,,2,,,700
NSR:StopPlace:45399,,Leksdal skole,,63.84591,11.647798,,,1,,2,,,700
NSR:StopPlace:44068,,Gjeitaveien,,63.426937,9.947996,,,1,,2,,,700
NSR:StopPlace:44069,,Gjengstø,,63.446087,8.998737,,,1,,2,,,700
NSR:StopPlace:41808,,Tulluan syd,,63.288635,10.43624,,,1,,2,,,700
NSR:StopPlace:44070,,Gjerdet,,63.2754,10.183732,,,1,,2,,,700
NSR:StopPlace:41809,,Holte,,62.894375,10.248142,,,1,,2,,,700
NSR:StopPlace:44071,,Gjersvold,,62.77588,11.182301,,,1,,2,,,700
NSR:StopPlace:41806,,Rota,,63.431446,10.760712,,,1,,2,,,700
NSR:StopPlace:44072,,Gjetneset,,62.918957,11.875901,,,1,,2,,,700
NSR:StopPlace:41807,,Rotla bru,,63.18388,11.189725,,,1,,2,,,700
NSR:StopPlace:44073,,Gjevilvasshytta,,62.69756,9.420219,,,1,,2,,,700
NSR:StopPlace:41804,,Tulluan skole,,63.290615,10.437774,,,1,,2,,,700
NSR:StopPlace:44074,,Gjæsingen kai,,63.92515,8.89777,,,1,,2,,,1000
NSR:StopPlace:41805,,Holssætra,,62.590153,9.540976,,,1,,2,,,700
NSR:StopPlace:44075,,Gjølga,,63.794247,9.960421,,,1,,2,,,700
NSR:StopPlace:41802,,Holsmoen,,62.84397,9.903214,,,1,,2,,,700
NSR:StopPlace:44076,,Gjølme,,63.315914,9.809965,,,1,,2,,,700
NSR:StopPlace:41803,,Rota,,63.395996,10.529033,,,1,,2,,,700
NSR:StopPlace:44077,,Gjølme skole,,63.317787,9.807941,,,1,,2,,,700
NSR:StopPlace:41800,,Rostengrenda,,63.36559,10.381971,,,1,,2,,,700
NSR:StopPlace:44078,,Gjønnes,,63.27315,9.697537,,,1,,2,,,700
NSR:StopPlace:41801,,Tulluan nord,,63.293148,10.438129,,,1,,2,,,700
NSR:StopPlace:44079,,Gjøssvika bru,,62.567173,11.37821,,,1,,2,,,700
NSR:StopPlace:44080,,Glåmos,,62.67329,11.419224,,,1,,2,,,700
NSR:StopPlace:41819,,Hommelvik bomstasjon,,63.413136,10.820846,,,1,,2,,,700
NSR:StopPlace:44081,,Glåmos samf.hus,,62.672684,11.426246,,,1,,2,,,700
NSR:StopPlace:44082,,Glåmos stadion,,62.66856,11.428721,,,1,,2,,,700
NSR:StopPlace:44083,,Glørstad,,63.630943,8.897585,,,1,,2,,,700
NSR:StopPlace:41818,,Rugeldalen stasjon,,62.73128,11.32641,,,1,,2,,,700
NSR:StopPlace:41815,,Holtmoen,,62.887432,10.248399,,,1,,2,,,700
NSR:StopPlace:44085,,Gløshaugen syd,,63.41649,10.408178,,,1,,2,,,700
NSR:StopPlace:44086,,Gogstadbakken,,63.450413,10.308766,,,1,,2,,,700
NSR:StopPlace:41813,,Rotvoll,,63.434944,10.483832,,,1,,2,,,700
NSR:StopPlace:44087,,Graftås samf.hus,,62.824295,11.346509,,,1,,2,,,700
NSR:StopPlace:44088,,Granby,,63.276817,11.078778,,,1,,2,,,700
NSR:StopPlace:41811,,Tunga kretsfengsel,,63.42156,10.471419,,,1,,2,,,700
NSR:StopPlace:44089,,Grandal,,63.78741,10.024566,,,1,,2,,,700
NSR:StopPlace:41812,,Holten,,63.319984,10.500172,,,1,,2,,,700
NSR:StopPlace:41810,,Rottem,,63.46193,9.183749,,,1,,2,,,700
NSR:StopPlace:43566,,Autosletta,,63.094543,9.695067,,,1,,2,,,700
NSR:StopPlace:42235,,Skistua,,63.41793,10.262062,,,1,,2,,,700
NSR:StopPlace:44898,,Tetlia,,63.708492,10.627741,,,1,,2,,,700
NSR:StopPlace:43565,,Eide,,63.23532,9.035825,,,1,,2,,,700
NSR:StopPlace:44899,,Møklegård,,64.463234,12.048507,,,1,,2,,,700
NSR:StopPlace:43564,,Aunegjerdet,,63.0178,10.421847,,,1,,2,,,700
NSR:StopPlace:42233,,Vikåsen skole,,63.412746,10.537777,,,1,,2,,,700
NSR:StopPlace:42232,,Selbuskogen skisenter,,63.338005,11.088649,,,1,,2,,,700
NSR:StopPlace:43562,,Eid skole,,63.16847,10.111192,,,1,,2,,,700
NSR:StopPlace:42230,,Vikåsen nedre,,63.417152,10.533776,,,1,,2,,,700
NSR:StopPlace:43561,,Aunvågen,,63.445187,8.380532,,,1,,2,,,700
NSR:StopPlace:43560,,Eggkleiva,,63.281616,10.050051,,,1,,2,,,700
NSR:StopPlace:44891,,Høglendet,,63.724636,10.621587,,,1,,2,,,700
NSR:StopPlace:44892,,Helgemoen sør,,64.48606,11.942798,,,1,,2,,,700
NSR:StopPlace:42239,,Vingsand,,64.3478,10.463665,,,1,,2,,,700
NSR:StopPlace:44894,,Trøabakken,,63.714954,10.635672,,,1,,2,,,700
NSR:StopPlace:44895,,Reppesfeltet,,63.446636,10.959421,,,1,,2,,,700
NSR:StopPlace:43569,,Autotomta,,62.57091,11.386486,,,1,,2,,,700
NSR:StopPlace:42238,,Skistugguveien,,62.562263,11.386786,,,1,,2,,,700
NSR:StopPlace:42237,,Grøtan vegkryss,,63.732037,9.676589,,,1,,2,,,700
NSR:StopPlace:44896,,Dambakkan,,64.46544,12.036636,,,1,,2,,,700
NSR:StopPlace:43568,,Orkanger barnehage,,63.31037,9.858661,,,1,,2,,,700
NSR:StopPlace:42236,,Vindal,,62.59743,9.335121,,,1,,2,,,700
NSR:StopPlace:44897,,Sorte skifer,,63.438488,10.989308,,,1,,2,,,700
NSR:StopPlace:43567,,Eide,,63.621742,8.930496,,,1,,2,,,700
NSR:StopPlace:42246,,Grøtvågen,,63.31044,9.082232,,,1,,2,,,700
NSR:StopPlace:43577,,Bakkegata,,63.432316,10.407262,,,1,,2,,,700
NSR:StopPlace:46604,,Steinkjer,,64.164055,12.490275,,,1,,2,,,700
NSR:StopPlace:42245,,Vinje kirke,,63.207233,9.001372,,,1,,2,,,700
NSR:StopPlace:46603,,Gjeset,,64.635994,11.313905,,,1,,2,,,700
NSR:StopPlace:43576,,Eidemsneset,,63.24816,11.068939,,,1,,2,,,700
NSR:StopPlace:43575,,Eidem,,63.928967,10.015586,,,1,,2,,,700
NSR:StopPlace:46606,,Utøy,,63.864273,11.169674,,,1,,2,,,700
NSR:StopPlace:42244,,Skjelldam,,63.76796,8.764789,,,1,,2,,,700
NSR:StopPlace:46605,,Foråsmoen,,64.63508,11.281088,,,1,,2,,,700
NSR:StopPlace:42243,,Grøtte skole,,63.26081,9.812624,,,1,,2,,,700
NSR:StopPlace:43574,,Avløs,,63.671806,8.566493,,,1,,2,,,700
NSR:StopPlace:42242,,Vingvågen,,63.514805,9.295549,,,1,,2,,,700
NSR:StopPlace:46608,,Ås,,63.872967,11.14746,,,1,,2,,,700
NSR:StopPlace:43572,,Eide,,63.945866,10.069278,,,1,,2,,,700
NSR:StopPlace:42241,,Skjefstadbakken,,63.34088,10.271821,,,1,,2,,,700
NSR:StopPlace:42240,,Grøtte,,63.253155,10.927122,,,1,,2,,,700
NSR:StopPlace:43571,,Avelsgård vegkryss,,63.257645,11.10658,,,1,,2,,,700
NSR:StopPlace:43570,,Eide,,63.722748,9.831296,,,1,,2,,,700
NSR:StopPlace:46609,,Loa vegdele,,63.869232,11.160399,,,1,,2,,,700
NSR:StopPlace:46600,,Gjesetodden,,64.63548,11.318241,,,1,,2,,,700
NSR:StopPlace:42248,,Vinjeøra,,63.202675,8.983239,,,1,,2,,,700
NSR:StopPlace:46602,,Kvamsskogen,,63.864796,11.197716,,,1,,2,,,700
NSR:StopPlace:43579,,Eidemsvik,,63.239822,11.049474,,,1,,2,,,700
NSR:StopPlace:46601,,Røvika,,63.868237,11.212556,,,1,,2,,,700
NSR:StopPlace:43578,,Orkanger skole,,63.306572,9.850307,,,1,,2,,,700
NSR:StopPlace:42247,,Skjellvik,,63.78221,8.699051,,,1,,2,,,700
NSR:StopPlace:42257,,Vintervollen,,62.65755,11.420048,,,1,,2,,,700
NSR:StopPlace:46615,,Nymoen,,64.62676,11.273672,,,1,,2,,,700
NSR:StopPlace:43588,,Rundhaugen,,63.293983,9.844921,,,1,,2,,,700
NSR:StopPlace:42256,,Skjerdingstad,,63.246357,10.275199,,,1,,2,,,700
NSR:StopPlace:46614,,Almenningen,,63.87775,11.186124,,,1,,2,,,700
NSR:StopPlace:43587,,Bakkmoen,,63.253933,9.769381,,,1,,2,,,700
NSR:StopPlace:43586,,Eidsfoss,,63.229263,9.031888,,,1,,2,,,700
NSR:StopPlace:46617,,Agleåsen,,64.271034,12.506545,,,1,,2,,,700
NSR:StopPlace:42255,,Vinterdal,,63.291054,9.608352,,,1,,2,,,700
NSR:StopPlace:42254,,Gullikstad,,62.7378,9.990376,,,1,,2,,,700
NSR:StopPlace:43585,,Bakkgjære,,62.934174,10.217882,,,1,,2,,,700
NSR:StopPlace:46616,,Oksål,,63.885357,11.184152,,,1,,2,,,700
NSR:StopPlace:43584,,Eidet bru,,62.859554,11.212235,,,1,,2,,,700
NSR:StopPlace:42253,,Skjerbusdal,,63.66144,9.090156,,,1,,2,,,700
NSR:StopPlace:42252,,Vinjeøra skole,,63.207832,8.990009,,,1,,2,,,700
NSR:StopPlace:43583,,Orkanger skysstasjon,,63.298325,9.847541,,,1,,2,,,700
NSR:StopPlace:43582,,Bakken,,63.368244,10.763472,,,1,,2,,,700
NSR:StopPlace:42251,,Gudruns gate,,63.425186,10.382667,,,1,,2,,,700
NSR:StopPlace:43581,,Eidet,,62.854717,11.216765,,,1,,2,,,700
NSR:StopPlace:42250,,Skjephaug,,62.83371,9.965909,,,1,,2,,,700
NSR:StopPlace:43580,,Bakken,,62.634457,11.377899,,,1,,2,,,700
NSR:StopPlace:58608,,Orkdal Sjukehus,,63.29269,9.844249,,,1,,2,,,700
NSR:StopPlace:46611,,Agle vest,,64.27437,12.517438,,,1,,2,,,700
NSR:StopPlace:46610,,Skrevstadkorsen,,64.64002,11.264226,,,1,,2,,,700
NSR:StopPlace:42259,,Skjerliløkken,,62.997387,10.239341,,,1,,2,,,700
NSR:StopPlace:46613,,Kjesbu,,63.872562,11.203481,,,1,,2,,,700
NSR:StopPlace:42258,,Gullikstad,,62.60953,11.367971,,,1,,2,,,700
NSR:StopPlace:46612,,Nygård,,64.63108,11.278759,,,1,,2,,,700
NSR:StopPlace:43589,,Bakksætra,,63.24656,9.660628,,,1,,2,,,700
NSR:StopPlace:43599,,Einbakkbrua,,63.6577,10.159217,,,1,,2,,,700
NSR:StopPlace:42268,,Skjetlein,,63.340782,10.302214,,,1,,2,,,700
NSR:StopPlace:46626,,Leira Vangshylla,,63.850945,11.116201,,,1,,2,,,700
NSR:StopPlace:43598,,Balsnesaunet,,63.48405,8.791055,,,1,,2,,,700
NSR:StopPlace:43597,,Balsnes,,63.70931,9.694633,,,1,,2,,,700
NSR:StopPlace:42266,,Gullvåg camping,,62.917454,10.14175,,,1,,2,,,700
NSR:StopPlace:46628,,Næss,,63.84783,11.107197,,,1,,2,,,700
NSR:StopPlace:43596,,Einar Øfstis veg,,63.405052,10.433178,,,1,,2,,,700
NSR:StopPlace:42265,,Skjervika,,63.687065,8.665587,,,1,,2,,,700
NSR:StopPlace:42264,,Gullvika,,63.867676,9.853889,,,1,,2,,,700
NSR:StopPlace:43595,,Ballsnes,,63.483093,8.840225,,,1,,2,,,700
NSR:StopPlace:42263,,Volden,,63.600616,8.862858,,,1,,2,,,700
NSR:StopPlace:43593,,Ormhaugen,,62.639202,11.394787,,,1,,2,,,700
NSR:StopPlace:42262,,Skjervan,,62.846596,9.890734,,,1,,2,,,700
NSR:StopPlace:42261,,Gullikstad sør,,62.60614,11.366297,,,1,,2,,,700
NSR:StopPlace:43592,,Baklia,,63.416187,10.32268,,,1,,2,,,700
NSR:StopPlace:42260,,Vognillan,,62.61567,9.576274,,,1,,2,,,700
NSR:StopPlace:43591,,Einan,,64.193085,10.200914,,,1,,2,,,700
NSR:StopPlace:43590,,Eidsli,,63.233204,10.098411,,,1,,2,,,700
NSR:StopPlace:46620,,Tronstadkorsen,,63.893223,11.188425,,,1,,2,,,700
NSR:StopPlace:46622,,Lyngstad,,63.894676,11.186434,,,1,,2,,,700
NSR:StopPlace:46624,,Ulvin,,63.855724,11.134792,,,1,,2,,,700
NSR:StopPlace:42269,,Gunhildsøy bru,,63.020084,10.24709,,,1,,2,,,700
NSR:StopPlace:46623,,Gravbrøt,,64.27463,12.546608,,,1,,2,,,700
NSR:StopPlace:42279,,Voll skole,,62.87678,9.836372,,,1,,2,,,700
NSR:StopPlace:46637,,Rennset,,64.24439,12.170577,,,1,,2,,,700
NSR:StopPlace:45305,,Ness,,63.76505,11.579155,,,1,,2,,,700
NSR:StopPlace:42278,,Gurvikdal,,63.765305,8.733638,,,1,,2,,,700
NSR:StopPlace:42277,,Skjulenget,,63.06638,9.631993,,,1,,2,,,700
NSR:StopPlace:45307,,Bringebærvegen,,63.721306,11.27153,,,1,,2,,,700
NSR:StopPlace:42276,,Voll gård,,63.410698,10.447089,,,1,,2,,,700
NSR:StopPlace:46638,,Brevik Kjerringvik,,63.83297,11.050711,,,1,,2,,,700
NSR:StopPlace:42275,,Gunnesveien,,62.8387,9.916248,,,1,,2,,,700
NSR:StopPlace:42273,,Voll,,62.87669,9.840626,,,1,,2,,,700
NSR:StopPlace:42272,,Gunnes,,62.84065,9.884143,,,1,,2,,,700
NSR:StopPlace:42271,,Skjetnemyrbakken,,63.17735,10.316782,,,1,,2,,,700
NSR:StopPlace:42270,,Volden,,62.90725,10.216825,,,1,,2,,,700
NSR:StopPlace:46631,,Vang,,63.84815,11.097377,,,1,,2,,,700
NSR:StopPlace:46630,,Sagmoen,,64.27228,12.555388,,,1,,2,,,700
NSR:StopPlace:45300,,Lågness,,63.765987,11.573611,,,1,,2,,,700
NSR:StopPlace:45301,,Branesvegen,,63.730923,11.285389,,,1,,2,,,700
NSR:StopPlace:45302,,Nyveiskorsen,,64.11791,11.727653,,,1,,2,,,700
NSR:StopPlace:46635,,Brasethammer,,63.839336,11.06648,,,1,,2,,,700
NSR:StopPlace:45303,,Momarkvegen,,63.729443,11.280435,,,1,,2,,,700
NSR:StopPlace:46648,,Melvold,,63.824135,10.979708,,,1,,2,,,700
NSR:StopPlace:42289,,Skjøtskift,,63.147392,9.713734,,,1,,2,,,700
NSR:StopPlace:45317,,Oppemsmoen,,63.760387,11.668194,,,1,,2,,,700
NSR:StopPlace:45318,,Kløverstien,,63.72576,11.282545,,,1,,2,,,700
NSR:StopPlace:42288,,Vollabrua,,63.29313,10.055615,,,1,,2,,,700
NSR:StopPlace:42287,,Gylland,,63.090065,10.249756,,,1,,2,,,700
NSR:StopPlace:45319,,Knedal,,64.13257,11.645813,,,1,,2,,,700
NSR:StopPlace:42286,,Skjøstad,,63.390804,10.161236,,,1,,2,,,700
NSR:StopPlace:42284,,Gyldenløves gate,,63.4305,10.419608,,,1,,2,,,700
NSR:StopPlace:42283,,Skjønhals,,63.785496,8.71406,,,1,,2,,,700
NSR:StopPlace:42282,,Voll studentby,,63.409393,10.44429,,,1,,2,,,700
NSR:StopPlace:42281,,Gustav Berg,,63.22065,10.273062,,,1,,2,,,700
NSR:StopPlace:42280,,Skjærvøy kai,,64.29387,10.29802,,,1,,2,,,1000
NSR:StopPlace:46640,,Mosvik,,63.816875,11.003989,,,1,,2,,,700
NSR:StopPlace:46642,,Meltingen,,63.79678,10.766647,,,1,,2,,,700
NSR:StopPlace:45310,,Tyttebærvegen,,63.72071,11.273719,,,1,,2,,,700
NSR:StopPlace:46644,,Mohammar,,64.63319,11.270261,,,1,,2,,,700
NSR:StopPlace:45312,,Kreklingvegen,,63.722103,11.279382,,,1,,2,,,700
NSR:StopPlace:46643,,Melakorsen,,64.2683,12.282862,,,1,,2,,,700
NSR:StopPlace:45313,,Guddingsmoen,,63.761158,11.642824,,,1,,2,,,700
NSR:StopPlace:46646,,Mosvik skole,,63.818615,11.005014,,,1,,2,,,700
NSR:StopPlace:46645,,Grande Mosvik,,63.82221,11.013197,,,1,,2,,,700
NSR:StopPlace:45315,,Høgberget snuplass,,63.723186,11.282264,,,1,,2,,,700
NSR:StopPlace:46659,,Salsnes,,64.70303,11.441928,,,1,,2,,,700
NSR:StopPlace:46658,,Jøa hurtigbåtkai,,64.637634,11.345774,,,1,,2,,,1000
NSR:StopPlace:45328,,Råde,,64.04107,11.645984,,,1,,2,,,700
NSR:StopPlace:42299,,Gåregrenda,,62.940983,11.073735,,,1,,2,,,700
NSR:StopPlace:42298,,Vollan,,63.093643,10.242337,,,1,,2,,,700
NSR:StopPlace:42297,,Skogrand,,63.30353,9.079999,,,1,,2,,,700
NSR:StopPlace:42296,,Gynnild,,62.964863,10.164433,,,1,,2,,,700
NSR:StopPlace:42295,,Vollan,,63.53291,10.038967,,,1,,2,,,700
NSR:StopPlace:42294,,Skogen,,63.529243,9.928968,,,1,,2,,,700
NSR:StopPlace:42293,,Gylløyen,,63.082626,10.254193,,,1,,2,,,700
NSR:StopPlace:42292,,Skjøtskift bru,,63.152046,9.7188,,,1,,2,,,700
NSR:StopPlace:42291,,Vollagjerdet,,63.094357,10.241922,,,1,,2,,,700
NSR:StopPlace:42290,,Gylle,,63.29456,10.281427,,,1,,2,,,700
NSR:StopPlace:46651,,Åring,,63.830383,10.949565,,,1,,2,,,700
NSR:StopPlace:46650,,Moum,,64.27423,12.303005,,,1,,2,,,700
NSR:StopPlace:45320,,Symrevegen,,63.726933,11.287565,,,1,,2,,,700
NSR:StopPlace:45321,,Haug Kne,,64.13043,11.681766,,,1,,2,,,700
NSR:StopPlace:46653,,Meltingseter vegdele,,63.790466,10.730412,,,1,,2,,,700
NSR:StopPlace:46652,,Ølhammeren ferjekai,,64.636444,11.360216,,,1,,2,,,1000
NSR:StopPlace:45322,,Djupdalen,,63.810276,12.24447,,,1,,2,,,700
NSR:StopPlace:45323,,Momarka barnehage,,63.727554,11.288238,,,1,,2,,,700
NSR:StopPlace:46655,,Storlien station,,63.316326,12.100418,,,1,,2,,,700
NSR:StopPlace:45325,,Henning skole,,63.959946,11.612016,,,1,,2,,,700
NSR:StopPlace:46657,,Myrvika,,64.60464,11.427091,,,1,,2,,,700
NSR:StopPlace:46656,,Tjennaråsen,,64.33674,12.337716,,,1,,2,,,700
NSR:StopPlace:45326,,Skippervegen,,63.728672,11.284376,,,1,,2,,,700
NSR:StopPlace:44007,,Bøvra,,63.16288,10.101813,,,1,,2,,,700
NSR:StopPlace:44008,,Furunes,,62.6046,9.443177,,,1,,2,,,700
NSR:StopPlace:44009,,C.J. Hambros vei,,63.353027,10.366567,,,1,,2,,,700
NSR:StopPlace:46660,,Oldernesset vegdele,,64.196236,12.194231,,,1,,2,,,700
NSR:StopPlace:46662,,Seierstad,,64.63759,11.343068,,,1,,2,,,700
NSR:StopPlace:45330,,Skjørholmen,,63.832485,11.575958,,,1,,2,,,700
NSR:StopPlace:46661,,Kvernvik,,64.73332,11.524471,,,1,,2,,,700
NSR:StopPlace:44000,,Børskrysset E39,,63.322033,10.063109,,,1,,2,,,700
NSR:StopPlace:44001,,Furuhaugen,,63.376637,10.339513,,,1,,2,,,700
NSR:StopPlace:45332,,Risberg,,64.01447,11.623459,,,1,,2,,,700
NSR:StopPlace:46664,,Kilmyra,,64.45303,10.741352,,,1,,2,,,700
NSR:StopPlace:44002,,Børsa,,63.32614,10.069683,,,1,,2,,,700
NSR:StopPlace:45334,,Vibe,,64.01838,11.551171,,,1,,2,,,700
NSR:StopPlace:44003,,Børsa skole/Skaun oppvekst,,63.32499,10.064389,,,1,,2,,,700
NSR:StopPlace:44004,,Furunes,,63.745323,9.829204,,,1,,2,,,700
NSR:StopPlace:45335,,Haukå,,63.84709,11.593788,,,1,,2,,,700
NSR:StopPlace:46665,,Innervika,,64.47341,10.712303,,,1,,2,,,700
NSR:StopPlace:44005,,Børsa skole/Skaun u.skole,,63.32499,10.064389,,,1,,2,,,700
NSR:StopPlace:46667,,Sagfossen,,64.165764,12.400429,,,1,,2,,,700
NSR:StopPlace:45337,,Fergeland,,64.01796,11.535401,,,1,,2,,,700
NSR:StopPlace:39463,,Løfald,,63.093105,9.257284,,,1,,2,,,700
NSR:StopPlace:44810,,Hildrem,,64.49337,11.946256,,,1,,2,,,700
NSR:StopPlace:41783,,Tråssåvika,,63.347397,9.965747,,,1,,2,,,700
NSR:StopPlace:41784,,Holden øvre,,62.7853,11.341367,,,1,,2,,,700
NSR:StopPlace:44811,,Draveng,,63.39368,10.966668,,,1,,2,,,700
NSR:StopPlace:41782,,Romolslia nedre,,63.381878,10.369088,,,1,,2,,,700
NSR:StopPlace:44814,,Kleivland,,63.3895,11.114988,,,1,,2,,,700
NSR:StopPlace:44815,,Ranem,,64.49588,11.951875,,,1,,2,,,700
NSR:StopPlace:44816,,Hoåsen,,63.392185,11.124532,,,1,,2,,,700
NSR:StopPlace:44817,,Kråkmo vegdele,,63.650265,10.264819,,,1,,2,,,700
NSR:StopPlace:44818,,Tettlien,,64.47615,11.893945,,,1,,2,,,700
NSR:StopPlace:44819,,Elverli,,63.38174,11.082454,,,1,,2,,,700
NSR:StopPlace:39467,,Trøknaholt,,63.094303,9.225445,,,1,,2,,,700
NSR:StopPlace:41787,,Trøan,,62.64338,11.402412,,,1,,2,,,700
NSR:StopPlace:40454,,Aune,,63.044388,9.142975,,,1,,2,,,700
NSR:StopPlace:41785,,Romolslia øvre,,63.37697,10.362483,,,1,,2,,,700
NSR:StopPlace:41786,,Hollaseterveien,,63.31276,9.144722,,,1,,2,,,700
NSR:StopPlace:41794,,Holmeng,,64.040726,10.426455,,,1,,2,,,700
NSR:StopPlace:44821,,Skiljås,,64.48123,11.800328,,,1,,2,,,700
NSR:StopPlace:44822,,Fagerhaug oppvekstsenter,,63.471176,10.947179,,,1,,2,,,700
NSR:StopPlace:41795,,Trøndertun,,63.277245,10.24992,,,1,,2,,,700
NSR:StopPlace:44823,,Rønningen,,63.653217,10.255091,,,1,,2,,,700
NSR:StopPlace:40461,,Aure,,63.267807,8.530555,,,1,,2,,,700
NSR:StopPlace:41792,,Rosmælen skole,,63.226513,10.274424,,,1,,2,,,700
NSR:StopPlace:44824,,Solbakken Elvran,,63.388573,11.093,,,1,,2,,,700
NSR:StopPlace:41793,,Rostad,,63.06928,10.278656,,,1,,2,,,700
NSR:StopPlace:41790,,Hollasætra,,63.309017,9.198817,,,1,,2,,,700
NSR:StopPlace:44825,,Bjørnes,,64.51524,12.018468,,,1,,2,,,700
NSR:StopPlace:41791,,Trøndelag Folkemuseum,,63.42122,10.35631,,,1,,2,,,700
NSR:StopPlace:44826,,Rian vegdele,,63.653618,10.278523,,,1,,2,,,700
NSR:StopPlace:44827,,Værnes prestegård,,63.454388,10.956616,,,1,,2,,,700
NSR:StopPlace:44828,,Lungdalen,,64.51839,12.040302,,,1,,2,,,700
NSR:StopPlace:44829,,Rian,,63.65706,10.323417,,,1,,2,,,700
NSR:StopPlace:41798,,Holskrysset,,62.90368,9.804739,,,1,,2,,,700
NSR:StopPlace:41799,,Trøveien,,63.30325,10.154608,,,1,,2,,,700
NSR:StopPlace:41796,,Rosten,,63.362267,10.362835,,,1,,2,,,700
NSR:StopPlace:44820,,Bjørsetåsen,,63.64011,10.270764,,,1,,2,,,700
NSR:StopPlace:43500,,Moholt omkjøringsvei,,63.41112,10.445098,,,1,,2,,,700
NSR:StopPlace:44833,,Kalvetrøen,,64.51086,11.985116,,,1,,2,,,700
NSR:StopPlace:44834,,Breidli,,63.616276,10.23326,,,1,,2,,,700
NSR:StopPlace:44835,,Skatval stasjon,,63.509056,10.826619,,,1,,2,,,700
NSR:StopPlace:44836,,Litl-Skogmo,,64.505615,12.022753,,,1,,2,,,700
NSR:StopPlace:38157,,Eidestranda,,63.301033,8.538837,,,1,,2,,,700
NSR:StopPlace:44837,,Husbyåsen,,63.477943,10.959553,,,1,,2,,,700
NSR:StopPlace:44838,,Omundvågen,,63.633434,10.265675,,,1,,2,,,700
NSR:StopPlace:44839,,Voll nord,,64.50022,12.024989,,,1,,2,,,700
NSR:StopPlace:43508,,Dybdalsbakk,,62.967625,10.956635,,,1,,2,,,700
NSR:StopPlace:43507,,Dybdahls veg,,63.412918,10.414163,,,1,,2,,,700
NSR:StopPlace:43506,,Asbjørn Øverås veg,,63.39539,10.425229,,,1,,2,,,700
NSR:StopPlace:43505,,Nardo omkjøringsvei,,63.40736,10.422079,,,1,,2,,,700
NSR:StopPlace:43504,,Drøyvoll,,62.908257,11.185841,,,1,,2,,,700
NSR:StopPlace:43503,,Asb.vollen avkjøring,,63.104336,10.198931,,,1,,2,,,700
NSR:StopPlace:44830,,Øfsti gamle skole,,63.450645,11.0357,,,1,,2,,,700
NSR:StopPlace:43502,,Arnt Smistads veg,,63.396526,10.354213,,,1,,2,,,700
NSR:StopPlace:43501,,Dronningens gate,,63.43194,10.393419,,,1,,2,,,700
NSR:StopPlace:44843,,Kirkneset vegdele,,63.60876,10.236834,,,1,,2,,,700
NSR:StopPlace:44844,,Voll,,64.49272,12.027769,,,1,,2,,,700
NSR:StopPlace:44845,,Fløan østre,,63.53305,10.789818,,,1,,2,,,700
NSR:StopPlace:44846,,Nordgjerdet,,63.621094,10.240186,,,1,,2,,,700
NSR:StopPlace:44847,,Brekka Vassbygda,,63.506676,10.986245,,,1,,2,,,700
NSR:StopPlace:60076,,Nordbygdvegen,,64.18081,11.786152,,,1,,2,,,
NSR:StopPlace:44848,,Lysbakkan,,64.518684,11.98625,,,1,,2,,,700
NSR:StopPlace:44849,,Roten,,63.593807,10.205956,,,1,,2,,,700
NSR:StopPlace:43519,,Asmundvåg,,63.581905,8.655087,,,1,,2,,,700
NSR:StopPlace:43517,,Onsøya,,63.271976,10.190548,,,1,,2,,,700
NSR:StopPlace:43516,,Asklund,,62.96273,10.219564,,,1,,2,,,700
NSR:StopPlace:43515,,Dypfest vegkryss,,63.77644,9.585582,,,1,,2,,,700
NSR:StopPlace:44840,,Mæla gård,,63.49312,10.925545,,,1,,2,,,700
NSR:StopPlace:43514,,Askeladdvegen,,63.426,10.507937,,,1,,2,,,700
NSR:StopPlace:44841,,Dalsaune,,63.60116,10.225706,,,1,,2,,,700
NSR:StopPlace:43513,,Dypfest ferjekai,,63.780586,9.577608,,,1,,2,,,1000
NSR:StopPlace:44842,,Mære,,63.50706,10.803334,,,1,,2,,,700
NSR:StopPlace:43512,,Asbjørnslettet,,63.284554,9.61288,,,1,,2,,,700
NSR:StopPlace:43522,,Asphaugen,,62.66112,9.890576,,,1,,2,,,700
NSR:StopPlace:44854,,Dal vegdele,,64.52044,11.980569,,,1,,2,,,700
NSR:StopPlace:43521,,Onsøybakkan,,63.428383,10.170462,,,1,,2,,,700
NSR:StopPlace:44856,,Grendahuset,,63.500477,10.962949,,,1,,2,,,700
NSR:StopPlace:43520,,Dyrvik,,63.75631,8.823046,,,1,,2,,,700
NSR:StopPlace:44857,,Fjølvika,,63.584415,10.189497,,,1,,2,,,700
NSR:StopPlace:44858,,Ytteråsen,,63.402813,11.181057,,,1,,2,,,700
NSR:StopPlace:44859,,Solem,,64.53031,11.968424,,,1,,2,,,700
NSR:StopPlace:43529,,Astronomvegen,,63.39316,10.409927,,,1,,2,,,700
NSR:StopPlace:43527,,Asserøystranda,,63.849255,9.862685,,,1,,2,,,700
NSR:StopPlace:44850,,Aglo vgs.,,63.533344,10.824281,,,1,,2,,,700
NSR:StopPlace:43526,,Onsøyen snekkeri,,63.24818,10.171874,,,1,,2,,,700
NSR:StopPlace:44851,,Kjerstad,,64.51412,11.987037,,,1,,2,,,700
NSR:StopPlace:43525,,Dyrøy,,63.7985,8.682139,,,1,,2,,,700
NSR:StopPlace:44852,,Keiseråsen,,63.575058,10.168916,,,1,,2,,,700
NSR:StopPlace:43524,,Aspøllkleivan,,63.1764,9.743955,,,1,,2,,,700
NSR:StopPlace:44853,,Krokvika sør,,63.5442,10.871237,,,1,,2,,,700
NSR:StopPlace:43523,,Dyrvoll,,62.899296,10.476713,,,1,,2,,,700
NSR:StopPlace:43533,,Dæli,,63.648453,10.129377,,,1,,2,,,700
NSR:StopPlace:42202,,Vikhammerløkka,,63.439087,10.634551,,,1,,2,,,700
NSR:StopPlace:44865,,Lian,,64.51771,11.948709,,,1,,2,,,700
NSR:StopPlace:42201,,Skaugabrua,,63.59352,9.918115,,,1,,2,,,700
NSR:StopPlace:43532,,Audal,,63.843304,9.857684,,,1,,2,,,700
NSR:StopPlace:42200,,Grut,,62.984287,9.771032,,,1,,2,,,700
NSR:StopPlace:43531,,Opland,,63.417957,10.34031,,,1,,2,,,700
NSR:StopPlace:44867,,Voll,,63.50536,10.857515,,,1,,2,,,700
NSR:StopPlace:44868,,Velvang,,63.47847,10.798762,,,1,,2,,,700
NSR:StopPlace:43530,,Dyrøy skole,,63.7973,8.683463,,,1,,2,,,700
NSR:StopPlace:44869,,Storlia,,63.68957,10.525962,,,1,,2,,,700
NSR:StopPlace:42209,,Skaun ungdomsskole,,63.324226,10.064721,,,1,,2,,,700
NSR:StopPlace:43539,,Aunan,,62.94034,9.768811,,,1,,2,,,700
NSR:StopPlace:42208,,Vikhammeråsen snuplass,,63.43178,10.642942,,,1,,2,,,700
NSR:StopPlace:43538,,Dørndal,,63.600628,9.955608,,,1,,2,,,700
NSR:StopPlace:44860,,Tangen næringsområde,,63.47009,10.907675,,,1,,2,,,700
NSR:StopPlace:42207,,Skaun bensinstasjon,,63.26816,10.056118,,,1,,2,,,700
NSR:StopPlace:44861,,Kopperået,,63.589043,10.191788,,,1,,2,,,700
NSR:StopPlace:43537,,Auka,,63.77694,8.746621,,,1,,2,,,700
NSR:StopPlace:42206,,Gryta,,63.546272,8.551379,,,1,,2,,,700
NSR:StopPlace:43536,,Oppdal skole,,62.594833,9.685876,,,1,,2,,,700
NSR:StopPlace:42205,,Vikhammeråsen,,63.43305,10.630478,,,1,,2,,,700
NSR:StopPlace:44862,,Amdal,,64.517365,11.956207,,,1,,2,,,700
NSR:StopPlace:42204,,Skauma bru,,62.81497,10.035122,,,1,,2,,,700
NSR:StopPlace:43535,,Dørdal,,63.280506,9.60478,,,1,,2,,,700
NSR:StopPlace:44864,,Holan,,63.503304,10.89104,,,1,,2,,,700
NSR:StopPlace:42203,,Gryta,,63.406597,10.451528,,,1,,2,,,700
NSR:StopPlace:43534,,Audal vegkryss,,63.82683,9.869457,,,1,,2,,,700
NSR:StopPlace:42213,,Vikhov,,63.440388,10.643215,,,1,,2,,,700
NSR:StopPlace:44876,,Krubbstu,,64.50655,11.945794,,,1,,2,,,700
NSR:StopPlace:43544,,Aune,,63.794025,8.793818,,,1,,2,,,700
NSR:StopPlace:43543,,Oppdal skysstasjon,,62.593563,9.695223,,,1,,2,,,700
NSR:StopPlace:42212,,Skavdal,,63.748173,9.818872,,,1,,2,,,700
NSR:StopPlace:43542,,Døsvik,,63.74032,9.679754,,,1,,2,,,700
NSR:StopPlace:44878,,Sagåsen,,63.767986,10.623691,,,1,,2,,,700
NSR:StopPlace:42211,,Vikheim,,62.671402,11.527287,,,1,,2,,,700
NSR:StopPlace:44879,,Krokvika nord,,63.544533,10.879736,,,1,,2,,,700
NSR:StopPlace:42210,,Grønberg,,63.41828,10.776193,,,1,,2,,,700
NSR:StopPlace:43541,,Aundalen,,63.277332,10.223092,,,1,,2,,,700
NSR:StopPlace:43540,,Dørremsgrenda,,62.61549,9.537452,,,1,,2,,,700
NSR:StopPlace:44870,,Svaliaunet,,64.51342,11.92806,,,1,,2,,,700
NSR:StopPlace:42219,,Grønnesset,,63.216187,10.133173,,,1,,2,,,700
NSR:StopPlace:43549,,Aune,,63.01428,10.439713,,,1,,2,,,700
NSR:StopPlace:44871,,Treco,,63.45164,11.066461,,,1,,2,,,700
NSR:StopPlace:42218,,Vikstrømkrysset,,63.634384,8.788498,,,1,,2,,,700
NSR:StopPlace:43548,,Opphaug,,63.727226,9.687216,,,1,,2,,,700
NSR:StopPlace:42217,,Skavlans veg,,63.403416,10.342534,,,1,,2,,,700
NSR:StopPlace:44872,,Krabsetsve,,63.68669,10.546942,,,1,,2,,,700
NSR:StopPlace:43547,,E.A. Smith,,63.33727,10.352485,,,1,,2,,,700
NSR:StopPlace:44873,,Svalia,,64.50591,11.934276,,,1,,2,,,700
NSR:StopPlace:43546,,Aune,,63.720783,9.647463,,,1,,2,,,700
NSR:StopPlace:44874,,Kneppe,,63.498203,10.951831,,,1,,2,,,700
NSR:StopPlace:42215,,Grønnbakken,,63.5271,9.109636,,,1,,2,,,700
NSR:StopPlace:43545,,E-verket,,63.398598,10.400405,,,1,,2,,,700
NSR:StopPlace:42214,,Grønlia,,63.4154,10.302953,,,1,,2,,,700
NSR:StopPlace:44875,,Buenget,,63.78143,10.694192,,,1,,2,,,700
NSR:StopPlace:42224,,Vikvatnet,,64.2503,10.404176,,,1,,2,,,700
NSR:StopPlace:44887,,Lånke kirke,,63.444122,10.933359,,,1,,2,,,700
NSR:StopPlace:43555,,Eggen,,63.379745,10.124471,,,1,,2,,,700
NSR:StopPlace:43554,,Aune,,62.907547,10.697497,,,1,,2,,,700
NSR:StopPlace:44888,,Helgemoen nord,,64.4888,11.949007,,,1,,2,,,700
NSR:StopPlace:42223,,Skiheisen,,63.714725,10.235269,,,1,,2,,,700
NSR:StopPlace:43553,,Opphaug skole,,63.726723,9.694169,,,1,,2,,,700
NSR:StopPlace:42222,,Grønning,,63.500217,9.979944,,,1,,2,,,700
NSR:StopPlace:44889,,Bjørvatnet,,63.728584,10.631928,,,1,,2,,,700
NSR:StopPlace:43552,,Eggan,,63.284664,10.482553,,,1,,2,,,700
NSR:StopPlace:42221,,Vikvarvet S-lag,,63.21834,10.978518,,,1,,2,,,700
NSR:StopPlace:42220,,Skiftkroken,,63.708324,9.672815,,,1,,2,,,700
NSR:StopPlace:43551,,Aune,,63.309868,10.485396,,,1,,2,,,700
NSR:StopPlace:43550,,Edgar B. Schieldrops veg,,63.400574,10.434987,,,1,,2,,,700
NSR:StopPlace:44880,,Fjelltun,,63.763348,10.608482,,,1,,2,,,700
NSR:StopPlace:43559,,Aunhaugen,,63.337543,8.999851,,,1,,2,,,700
NSR:StopPlace:42228,,Vikåsen,,63.41518,10.530715,,,1,,2,,,700
NSR:StopPlace:44883,,Rota,,63.758274,10.597998,,,1,,2,,,700
NSR:StopPlace:44884,,Sandaunet,,63.517094,10.778379,,,1,,2,,,700
NSR:StopPlace:42227,,Grønningsmarka,,63.511658,9.981894,,,1,,2,,,700
NSR:StopPlace:43558,,Oppsynsmann Eggens veg,,63.34203,10.36073,,,1,,2,,,700
NSR:StopPlace:43557,,Eggen,,62.880867,10.263812,,,1,,2,,,700
NSR:StopPlace:44885,,Barlia,,64.497086,11.911229,,,1,,2,,,700
NSR:StopPlace:42226,,Skilleås,,63.79708,10.075819,,,1,,2,,,700
NSR:StopPlace:44886,,Elvvatnet,,63.738365,10.640486,,,1,,2,,,700
NSR:StopPlace:43556,,Aunet,,63.61737,8.848397,,,1,,2,,,700
NSR:StopPlace:42225,,Grønningen,,63.58246,9.75519,,,1,,2,,,700
NSR:StopPlace:37688,,Valsøybotn,,63.09629,8.626075,,,1,,2,,,700
NSR:StopPlace:37685,,Valsøya,,63.142143,8.533605,,,1,,2,,,700
NSR:StopPlace:70268,,Mosløkkja,,63.019062,10.331553,,,1,,2,,,700
NSR:StopPlace:70269,,Tamlagsrønningen,,62.869022,11.209212,,,1,,2,,,700
NSR:StopPlace:41709,,Retmoen,,63.08247,10.062032,,,1,,2,,,700
NSR:StopPlace:41707,,Tranvik vegdele,,63.57223,9.026994,,,1,,2,,,700
NSR:StopPlace:41708,,Restadveien,,63.16458,10.053876,,,1,,2,,,700
NSR:StopPlace:41705,,Reppkleiv,,64.18347,10.431669,,,1,,2,,,700
NSR:StopPlace:41703,,Hestvika,,63.569237,9.195183,,,1,,2,,,700
NSR:StopPlace:41704,,Tranghaugen,,63.49751,10.090992,,,1,,2,,,700
NSR:StopPlace:41702,,Reppevegen,,63.42339,10.543066,,,1,,2,,,700
NSR:StopPlace:41718,,Hillmo bru,,63.070633,11.435366,,,1,,2,,,700
NSR:StopPlace:41719,,Travbanevegen,,63.4332,10.470683,,,1,,2,,,700
NSR:StopPlace:41716,,Rian,,63.342545,9.953997,,,1,,2,,,700
NSR:StopPlace:41717,,Riaunet,,63.299725,10.057972,,,1,,2,,,700
NSR:StopPlace:41714,,Hillmo,,63.079777,11.42692,,,1,,2,,,700
NSR:StopPlace:41715,,Travbanen,,63.431675,10.476598,,,1,,2,,,700
NSR:StopPlace:41712,,Revsnes,,64.03812,10.055773,,,1,,2,,,700
NSR:StopPlace:41710,,Hevlesvegen,,62.562878,9.642498,,,1,,2,,,700
NSR:StopPlace:41711,,Tranvikan,,63.598125,9.027624,,,1,,2,,,700
NSR:StopPlace:41729,,Ringvål grind,,63.35564,10.256118,,,1,,2,,,700
NSR:StopPlace:41727,,Hindsverkrønning,,62.959167,10.813842,,,1,,2,,,700
NSR:StopPlace:41728,,Ringvål,,63.35193,10.249814,,,1,,2,,,700
NSR:StopPlace:41725,,Ringve skole,,63.449696,10.445397,,,1,,2,,,700
NSR:StopPlace:41726,,Trolla,,63.660103,9.082092,,,1,,2,,,700
NSR:StopPlace:41723,,Trolla,,63.451664,10.309936,,,1,,2,,,700
NSR:StopPlace:41724,,Ringve museum,,63.449417,10.456604,,,1,,2,,,700
NSR:StopPlace:41721,,Rimset,,62.909813,10.322085,,,1,,2,,,700
NSR:StopPlace:41722,,Hindbjørgen,,62.95728,10.793778,,,1,,2,,,700
NSR:StopPlace:41720,,Ribygda,,63.27805,10.028333,,,1,,2,,,700
NSR:StopPlace:70270,,Aunøien,,63.017925,10.417882,,,1,,2,,,700
NSR:StopPlace:70271,,Nygård,,62.957138,11.012039,,,1,,2,,,700
NSR:StopPlace:41738,,Rissa,,63.58262,9.953447,,,1,,2,,,700
NSR:StopPlace:41739,,Trollahaugen 64,,63.452183,10.304464,,,1,,2,,,700
NSR:StopPlace:41736,,Hjertåsbakken,,63.515057,9.042898,,,1,,2,,,700
NSR:StopPlace:41737,,Trollahaugen 46,,63.451912,10.302587,,,1,,2,,,700
NSR:StopPlace:41735,,Risgrenda,,62.523384,9.609448,,,1,,2,,,700
NSR:StopPlace:41732,,Rise,,62.905266,10.359413,,,1,,2,,,700
NSR:StopPlace:41733,,Trollahaugen 2,,63.4502,10.301166,,,1,,2,,,700
NSR:StopPlace:41730,,Trollahaugen 10,,63.451275,10.300472,,,1,,2,,,700
NSR:StopPlace:41740,,Hjulmakerveien,,62.58431,11.370208,,,1,,2,,,700
NSR:StopPlace:39423,,Lulia,,63.076637,9.322972,,,1,,2,,,700
NSR:StopPlace:41749,,Rognbudalen,,63.35404,10.380416,,,1,,2,,,700
NSR:StopPlace:40416,,Moan,,63.04729,9.190908,,,1,,2,,,700
NSR:StopPlace:41747,,Roan,,64.17256,10.22918,,,1,,2,,,700
NSR:StopPlace:41745,,Risvollvegen,,63.394485,10.423483,,,1,,2,,,700
NSR:StopPlace:41746,,Hoeggen skole,,63.4013,10.433551,,,1,,2,,,700
NSR:StopPlace:41743,,Risvollan senter,,63.390648,10.429298,,,1,,2,,,700
NSR:StopPlace:41744,,Hjørundhølen bru,,63.695507,10.276829,,,1,,2,,,700
NSR:StopPlace:41741,,Risvik,,63.7604,9.664911,,,1,,2,,,700
NSR:StopPlace:41742,,Trondheim S,,63.436108,10.40108,,,1,,2,,,700
NSR:StopPlace:41750,,Hofstad,,64.19704,10.405546,,,1,,2,,,700
NSR:StopPlace:41751,,Trondheim Spektrum,,63.426605,10.377584,,,1,,2,,,700
NSR:StopPlace:70298,,Julan,,63.410484,10.937055,,,1,,2,,,700
NSR:StopPlace:70296,,Julseth Østre,,63.392387,10.98488,,,1,,2,,,700
NSR:StopPlace:41758,,Rognheim,,63.39941,10.373167,,,1,,2,,,900
NSR:StopPlace:41759,,Tronsaune,,62.946995,11.290602,,,1,,2,,,700
NSR:StopPlace:41756,,Trongbakken,,63.098255,9.693056,,,1,,2,,,700
NSR:StopPlace:41757,,Hogsdalen,,63.69806,10.24045,,,1,,2,,,700
NSR:StopPlace:41754,,Hofstadsanden,,63.251076,10.278434,,,1,,2,,,700
NSR:StopPlace:41755,,Rognes bru,,63.00406,10.455127,,,1,,2,,,700
NSR:StopPlace:41752,,Rognes,,63.009182,10.449802,,,1,,2,,,700
NSR:StopPlace:41761,,Rognøy,,62.711147,9.958193,,,1,,2,,,700
NSR:StopPlace:41762,,Tronset,,63.189766,11.10725,,,1,,2,,,700
NSR:StopPlace:41760,,Hol,,62.585747,9.399115,,,1,,2,,,700
NSR:StopPlace:41769,,Tronsetås,,63.19176,11.08829,,,1,,2,,,700
NSR:StopPlace:41767,,Rogstadgrind,,63.01411,10.357997,,,1,,2,,,700
NSR:StopPlace:41768,,Rogstadøyen,,63.01766,10.335519,,,1,,2,,,700
NSR:StopPlace:41765,,Rogstadgjerdet,,63.01432,10.375994,,,1,,2,,,700
NSR:StopPlace:41766,,Holden,,62.692223,9.905618,,,1,,2,,,700
NSR:StopPlace:41763,,Rogstad,,63.013317,10.366919,,,1,,2,,,700
NSR:StopPlace:41764,,Hol,,62.562473,9.620733,,,1,,2,,,700
NSR:StopPlace:41772,,Rolset,,63.189625,11.184065,,,1,,2,,,700
NSR:StopPlace:41773,,Troøigjerget,,62.96943,10.568741,,,1,,2,,,700
NSR:StopPlace:44800,,Kongsmo nord,,64.874886,12.43339,,,1,,2,,,700
NSR:StopPlace:41770,,Holden,,62.79577,11.336059,,,1,,2,,,700
NSR:StopPlace:44801,,Leren,,63.430786,10.927473,,,1,,2,,,700
NSR:StopPlace:44802,,Vanvikan,,63.55331,10.221283,,,1,,2,,,700
NSR:StopPlace:44803,,Bjøråa,,64.91202,12.384288,,,1,,2,,,700
NSR:StopPlace:44804,,Lerbakken,,63.41661,10.932555,,,1,,2,,,700
NSR:StopPlace:44805,,Aksnes Aksnes,,63.557224,10.29703,,,1,,2,,,700
NSR:StopPlace:44806,,Jullum,,63.407112,10.938223,,,1,,2,,,700
NSR:StopPlace:44807,,Todås vegdele,,64.48562,11.903569,,,1,,2,,,700
NSR:StopPlace:44808,,Elvran oppvekstsenter,,63.392612,11.071557,,,1,,2,,,700
NSR:StopPlace:41778,,Romolslia,,63.37971,10.368771,,,1,,2,,,700
NSR:StopPlace:41779,,Holden nedre,,62.803,11.332355,,,1,,2,,,700
NSR:StopPlace:41776,,Trygan,,63.477463,9.74456,,,1,,2,,,700
NSR:StopPlace:41774,,Holden Bil,,62.774513,11.344156,,,1,,2,,,700
NSR:StopPlace:41775,,Rommet,,63.67465,8.60255,,,1,,2,,,700
NSR:StopPlace:45228,,Ulvin,,63.967285,11.382015,,,1,,2,,,700
NSR:StopPlace:46559,,Fjeset,,63.88618,11.113,,,1,,2,,,700
NSR:StopPlace:42199,,Vikhammer skole,,63.438446,10.633942,,,1,,2,,,700
NSR:StopPlace:42198,,Skaudal skole,,63.652058,10.146403,,,1,,2,,,700
NSR:StopPlace:42197,,Grunnsjømyra,,62.615498,11.592935,,,1,,2,,,700
NSR:StopPlace:42196,,Vikhammer,,63.43721,10.626628,,,1,,2,,,700
NSR:StopPlace:59870,,Fossli,,64.00528,11.564789,,,1,,2,,,700
NSR:StopPlace:42195,,Skaset,,63.96267,10.122479,,,1,,2,,,700
NSR:StopPlace:42194,,Viken / Dalakrysset,,62.663933,11.525615,,,1,,2,,,700
NSR:StopPlace:42193,,Grunnkloppa,,62.675293,11.408583,,,1,,2,,,700
NSR:StopPlace:42192,,Skarsvåg,,63.691284,8.687732,,,1,,2,,,700
NSR:StopPlace:42191,,Viken,,62.900402,11.873205,,,1,,2,,,700
NSR:StopPlace:59876,,Himmelbrua,,63.936504,11.4198,,,1,,2,,,700
NSR:StopPlace:59877,,Kjerkol,,64.18245,11.916996,,,1,,2,,,700
NSR:StopPlace:46550,,Leirbekken,,64.67658,11.294634,,,1,,2,,,700
NSR:StopPlace:46552,,Folen,,63.900494,11.145761,,,1,,2,,,700
NSR:StopPlace:45220,,Halsan skole,,63.72408,11.310079,,,1,,2,,,700
NSR:StopPlace:46551,,Trøakorsen,,63.90847,11.19078,,,1,,2,,,700
NSR:StopPlace:46554,,Snerting,,63.900093,11.143197,,,1,,2,,,700
NSR:StopPlace:45222,,Saurskorsen,,64.19167,11.930167,,,1,,2,,,700
NSR:StopPlace:46553,,Brakstad,,64.67048,11.206537,,,1,,2,,,700
NSR:StopPlace:45223,,Myran,,64.19302,11.942516,,,1,,2,,,700
NSR:StopPlace:46556,,Kleiv,,64.19694,12.269982,,,1,,2,,,700
NSR:StopPlace:45224,,Storsvekorsen,,63.73055,11.314105,,,1,,2,,,700
NSR:StopPlace:45226,,Garberg,,63.968903,11.409103,,,1,,2,,,700
NSR:StopPlace:46557,,Letnes,,63.899166,11.128133,,,1,,2,,,700
NSR:StopPlace:45227,,Halsankorsen,,63.731873,11.296764,,,1,,2,,,700
NSR:StopPlace:45239,,Risholt,,63.919407,11.424336,,,1,,2,,,700
NSR:StopPlace:59862,,Beitstad skole,,64.10978,11.388002,,,1,,2,,,700
NSR:StopPlace:59863,,Borganvegen,,64.186424,11.863228,,,1,,2,,,700
NSR:StopPlace:59864,,Bruveitakorsen,,64.16729,11.814991,,,1,,2,,,700
NSR:StopPlace:59868,,Dyrstad,,63.896233,11.521732,,,1,,2,,,700
NSR:StopPlace:46561,,Stokkan skole,,63.879974,11.107702,,,1,,2,,,700
NSR:StopPlace:45230,,Gilstadlia,,63.711807,11.250315,,,1,,2,,,700
NSR:StopPlace:46563,,Kleivmoen,,64.19461,12.279901,,,1,,2,,,700
NSR:StopPlace:45231,,Lånkan,,63.956646,11.425639,,,1,,2,,,700
NSR:StopPlace:46562,,Sandvika Dun,,64.650246,11.199514,,,1,,2,,,700
NSR:StopPlace:45232,,Skjerpingen,,63.72883,11.229162,,,1,,2,,,700
NSR:StopPlace:46565,,Myrseth,,64.644485,11.194925,,,1,,2,,,700
NSR:StopPlace:46564,,Norumsaunet,,63.874546,11.118534,,,1,,2,,,700
NSR:StopPlace:45234,,Brekka Vist,,63.95881,11.435747,,,1,,2,,,700
NSR:StopPlace:46567,,Jøa skole,,64.65285,11.264096,,,1,,2,,,700
NSR:StopPlace:45235,,Eideskorsen,,63.732815,11.232915,,,1,,2,,,700
NSR:StopPlace:45236,,Braset Sparbu,,63.919914,11.409239,,,1,,2,,,700
NSR:StopPlace:46566,,Skjelvågen,,63.9623,11.314714,,,1,,2,,,700
NSR:StopPlace:46569,,Tranås,,64.640396,11.190157,,,1,,2,,,700
NSR:StopPlace:46568,,Langås,,63.964943,11.30539,,,1,,2,,,700
NSR:StopPlace:38958,,Hennset ferjekai,,63.135952,8.434033,,,1,,2,,,700
NSR:StopPlace:46570,,Stornes,,63.96647,11.290072,,,1,,2,,,700
NSR:StopPlace:46572,,Krokneset,,64.63498,11.212413,,,1,,2,,,700
NSR:StopPlace:45240,,Alfnes,,63.736954,11.222971,,,1,,2,,,700
NSR:StopPlace:46571,,Undsetlia,,64.19214,12.300334,,,1,,2,,,700
NSR:StopPlace:45241,,Ystgården,,63.91009,11.45347,,,1,,2,,,700
NSR:StopPlace:46574,,Engneset,,64.63605,11.226975,,,1,,2,,,700
NSR:StopPlace:46573,,Hustadlandet,,63.971077,11.34809,,,1,,2,,,700
NSR:StopPlace:45243,,Skjetnemark,,63.75271,11.2157,,,1,,2,,,700
NSR:StopPlace:46576,,Faksdal vest,,64.63971,11.250278,,,1,,2,,,700
NSR:StopPlace:45244,,Hægstadkorsen,,63.89627,11.406952,,,1,,2,,,700
NSR:StopPlace:46575,,Verstad Lille,,63.92458,11.267864,,,1,,2,,,700
NSR:StopPlace:45245,,Håa,,63.75315,11.232963,,,1,,2,,,700
NSR:StopPlace:46578,,Flatås Gran,,63.921124,11.274613,,,1,,2,,,700
NSR:StopPlace:46577,,Gifstad Jørstad,,64.188,12.313151,,,1,,2,,,700
NSR:StopPlace:45248,,Sotberg,,63.949608,11.542192,,,1,,2,,,700
NSR:StopPlace:46579,,Faksdal øst,,64.64015,11.253022,,,1,,2,,,700
NSR:StopPlace:45249,,Bergvinan,,63.75291,11.256207,,,1,,2,,,700
NSR:StopPlace:59882,,Kvam skole,,64.13964,11.739128,,,1,,2,,,700
NSR:StopPlace:59884,,Mørkvedvegen,,64.08151,11.356623,,,1,,2,,,700
NSR:StopPlace:59885,,Nedre-Grøtan,,64.14881,11.763026,,,1,,2,,,700
NSR:StopPlace:38966,,Hermundsli,,63.147152,9.391938,,,1,,2,,,700
NSR:StopPlace:46580,,Heimstad,,63.9392,11.321626,,,1,,2,,,700
NSR:StopPlace:45250,,Stene,,63.752823,11.717348,,,1,,2,,,700
NSR:StopPlace:45251,,Rokka Veiesdal,,63.94304,11.54589,,,1,,2,,,700
NSR:StopPlace:46582,,Hommeldal,,63.910442,11.307393,,,1,,2,,,700
NSR:StopPlace:45252,,Nesheim skole,,63.739883,11.252301,,,1,,2,,,700
NSR:StopPlace:45253,,Veiesdal,,63.93283,11.532069,,,1,,2,,,700
NSR:StopPlace:46585,,Hallbrua,,63.890495,11.301092,,,1,,2,,,700
NSR:StopPlace:46584,,Kjenstad kryss,,64.186386,12.327567,,,1,,2,,,700
NSR:StopPlace:45254,,Domus,,63.744244,11.2979,,,1,,2,,,700
NSR:StopPlace:46587,,Hall,,63.88762,11.294383,,,1,,2,,,700
NSR:StopPlace:45255,,Stene nordre,,63.75683,11.724705,,,1,,2,,,700
NSR:StopPlace:45256,,Bergkorsen,,63.911915,11.550503,,,1,,2,,,700
NSR:StopPlace:45257,,Sykehuset Levanger,,63.7417,11.289615,,,1,,2,,,700
NSR:StopPlace:46589,,Rolshavn,,63.859497,11.329475,,,1,,2,,,700
NSR:StopPlace:45258,,Stubbe Levring,,63.749905,11.720551,,,1,,2,,,700
NSR:StopPlace:45259,,Deibakken,,64.11847,11.401673,,,1,,2,,,700
NSR:StopPlace:46592,,Sund folkehøgskole,,63.85872,11.312585,,,1,,2,,,700
NSR:StopPlace:45260,,Levanger kirke,,63.745525,11.295238,,,1,,2,,,700
NSR:StopPlace:45261,,Svarteskorsen,,64.119514,11.403528,,,1,,2,,,700
NSR:StopPlace:46591,,Åsa,,64.15709,12.446887,,,1,,2,,,700
NSR:StopPlace:46594,,Kvistadbakkan,,63.87483,11.261197,,,1,,2,,,700
NSR:StopPlace:46593,,Strandstua,,64.68792,11.434997,,,1,,2,,,700
NSR:StopPlace:45263,,Kvernmoen,,63.7583,11.803012,,,1,,2,,,700
NSR:StopPlace:45264,,Melgård,,64.12592,11.4191,,,1,,2,,,700
NSR:StopPlace:46596,,Volan,,63.874004,11.236777,,,1,,2,,,700
NSR:StopPlace:46595,,Rønningen,,64.63689,11.334919,,,1,,2,,,700
NSR:StopPlace:45265,,Staupslia hagesenter,,63.748447,11.285515,,,1,,2,,,700
NSR:StopPlace:45266,,Oppdal Hatlinghus,,64.13381,11.462529,,,1,,2,,,700
NSR:StopPlace:46598,,Gjesetmoen,,64.63506,11.325142,,,1,,2,,,700
NSR:StopPlace:46597,,Kjevli,,64.15944,12.469537,,,1,,2,,,700
NSR:StopPlace:45267,,Levring østre,,63.75172,11.702138,,,1,,2,,,700
NSR:StopPlace:45268,,Staupslia verksted,,63.75055,11.28931,,,1,,2,,,700
NSR:StopPlace:45269,,Gjønnum,,64.141754,11.499992,,,1,,2,,,700
NSR:StopPlace:46599,,Hjulstad,,63.871155,11.223331,,,1,,2,,,700
NSR:StopPlace:45270,,Sjøbadet,,63.751503,11.28952,,,1,,2,,,700
NSR:StopPlace:45271,,Moa,,63.73883,11.749422,,,1,,2,,,700
NSR:StopPlace:45273,,Joplassvegen,,63.754074,11.285826,,,1,,2,,,700
NSR:StopPlace:45274,,Laup,,64.07501,11.724171,,,1,,2,,,700
NSR:StopPlace:45275,,Inna bru,,63.731964,11.776959,,,1,,2,,,700
NSR:StopPlace:45276,,Kalkovnan,,63.758205,11.280084,,,1,,2,,,700
NSR:StopPlace:45277,,Finstad Binde,,64.07018,11.722389,,,1,,2,,,700
NSR:StopPlace:45279,,Nordheim,,64.06464,11.747537,,,1,,2,,,700
NSR:StopPlace:45280,,Kriken,,63.725193,11.806237,,,1,,2,,,700
NSR:StopPlace:45281,,Friggs veg,,63.756348,11.275787,,,1,,2,,,700
NSR:StopPlace:45284,,Øyan,,63.76846,11.557637,,,1,,2,,,700
NSR:StopPlace:45286,,Brages veg,,63.755207,11.264528,,,1,,2,,,700
NSR:StopPlace:45287,,Hatlingsveiskorsen,,64.094986,11.748547,,,1,,2,,,700
NSR:StopPlace:45288,,Ryan,,63.768147,11.560723,,,1,,2,,,700
NSR:StopPlace:45289,,Nesset oppvekstsenter,,63.751575,11.263127,,,1,,2,,,700
NSR:StopPlace:45291,,Smååsan,,64.09508,11.660094,,,1,,2,,,700
NSR:StopPlace:45292,,Gjemblekorsen,,63.74908,11.271148,,,1,,2,,,700
NSR:StopPlace:45293,,Leira Vinne,,63.767227,11.566211,,,1,,2,,,700
NSR:StopPlace:45294,,Reitlo,,64.100296,11.652359,,,1,,2,,,700
NSR:StopPlace:45295,,Breidablikk,,63.74737,11.282601,,,1,,2,,,700
NSR:StopPlace:45296,,Leirfallsaunet,,63.766445,11.570726,,,1,,2,,,700
NSR:StopPlace:45297,,Vang Gusthaugen,,64.111694,11.675169,,,1,,2,,,700
NSR:StopPlace:45298,,Moan studentbolig,,63.738422,11.280862,,,1,,2,,,700
NSR:StopPlace:45299,,Østvold,,64.11346,11.690804,,,1,,2,,,700
NSR:StopPlace:44777,,Meådal,,63.4653,11.495402,,,1,,2,,,700
NSR:StopPlace:43445,,Olalia,,63.58943,8.974138,,,1,,2,,,700
NSR:StopPlace:42114,,Industrivegen,,63.49708,9.838119,,,1,,2,,,700
NSR:StopPlace:43444,,Digre,,63.34393,10.519413,,,1,,2,,,700
NSR:StopPlace:44778,,Tømmerdalen nedre,,63.63325,10.571946,,,1,,2,,,700
NSR:StopPlace:44779,,Vinge,,63.493874,10.783259,,,1,,2,,,700
NSR:StopPlace:42112,,Venusvegen,,63.39196,10.42634,,,1,,2,,,700
NSR:StopPlace:43443,,Alfheimsvingen,,63.383907,10.327356,,,1,,2,,,700
NSR:StopPlace:42111,,Indset,,62.897964,10.217305,,,1,,2,,,700
NSR:StopPlace:43442,,Olaf Bulls veg,,63.39834,10.3452,,,1,,2,,,700
NSR:StopPlace:43441,,Alfheim,,63.38543,10.585282,,,1,,2,,,700
NSR:StopPlace:42110,,Singsholmen,,63.655037,9.040343,,,1,,2,,,700
NSR:StopPlace:43440,,Denstad,,63.585022,10.068168,,,1,,2,,,700
NSR:StopPlace:44770,,Testmann,,63.67977,10.606018,,,1,,2,,,700
NSR:StopPlace:44771,,Skei,,63.389027,11.064469,,,1,,2,,,700
NSR:StopPlace:42119,,Singsås Coop,,62.95719,10.723781,,,1,,2,,,700
NSR:StopPlace:44772,,Flått,,64.693726,12.336715,,,1,,2,,,700
NSR:StopPlace:42118,,Vestlia endeholdeplass,,63.397236,10.440115,,,1,,2,,,700
NSR:StopPlace:44773,,Leksvik kommunehuset,,63.673485,10.625472,,,1,,2,,,700
NSR:StopPlace:43448,,Almås,,62.966297,10.874378,,,1,,2,,,700
NSR:StopPlace:44774,,Kvålsåsen,,63.379005,11.066651,,,1,,2,,,700
NSR:StopPlace:42117,,Ingdal,,63.46074,9.906335,,,1,,2,,,700
NSR:StopPlace:44775,,Blomliflata,,63.702866,10.636142,,,1,,2,,,700
NSR:StopPlace:43447,,Almlia,,63.338696,9.866297,,,1,,2,,,700
NSR:StopPlace:42116,,Singstad,,63.478245,9.772426,,,1,,2,,,700
NSR:StopPlace:42115,,Veslenget,,62.675583,9.91544,,,1,,2,,,700
NSR:StopPlace:44776,,Kjølstad,,64.72361,12.357468,,,1,,2,,,700
NSR:StopPlace:42125,,Singsås stasjon,,62.956306,10.730078,,,1,,2,,,700
NSR:StopPlace:43456,,Alset vegdele,,63.71141,10.318025,,,1,,2,,,700
NSR:StopPlace:44788,,Hestdalen,,63.600044,10.458611,,,1,,2,,,700
NSR:StopPlace:43455,,Olav Nygards veg,,63.392017,10.348276,,,1,,2,,,700
NSR:StopPlace:42124,,Vestmarka,,63.406475,10.325016,,,1,,2,,,900
NSR:StopPlace:44789,,Rosendal,,64.80671,12.368691,,,1,,2,,,700
NSR:StopPlace:42123,,Ingemann Torps vei,,63.446236,10.442506,,,1,,2,,,700
NSR:StopPlace:43454,,Djupmyra,,63.34175,10.374263,,,1,,2,,,700
NSR:StopPlace:42122,,Singsås skole,,62.941547,10.651794,,,1,,2,,,700
NSR:StopPlace:43453,,Alset,,63.268833,11.140227,,,1,,2,,,700
NSR:StopPlace:43452,,Djupdal,,63.702785,9.594653,,,1,,2,,,700
NSR:StopPlace:43451,,Almåsøy,,62.969696,10.885396,,,1,,2,,,700
NSR:StopPlace:42120,,Ingeborg Ofstads veg,,63.357296,10.399324,,,1,,2,,,700
NSR:StopPlace:43450,,Olav Engelbrektssons allé,,63.447,10.457474,,,1,,2,,,700
NSR:StopPlace:44780,,Øye,,64.74459,12.355476,,,1,,2,,,700
NSR:StopPlace:44781,,Hoven,,63.624264,10.536876,,,1,,2,,,700
NSR:StopPlace:44782,,Malmtunet,,63.482178,10.97456,,,1,,2,,,700
NSR:StopPlace:44783,,Bjørlia,,64.7631,12.347773,,,1,,2,,,700
NSR:StopPlace:44784,,Gjevingfeltet øst,,63.436996,10.914175,,,1,,2,,,700
NSR:StopPlace:42129,,Innset skole,,62.716248,10.03287,,,1,,2,,,700
NSR:StopPlace:42128,,Singsåsbakken,,62.95677,10.714537,,,1,,2,,,700
NSR:StopPlace:44785,,Strandstu,,63.59015,10.427653,,,1,,2,,,700
NSR:StopPlace:43459,,Dolmsund bru,,63.635468,8.826573,,,1,,2,,,700
NSR:StopPlace:43458,,Amdal,,62.97516,10.293629,,,1,,2,,,700
NSR:StopPlace:42127,,Vestre Ranheim,,63.42333,10.534246,,,1,,2,,,700
NSR:StopPlace:44786,,Meidal,,64.786835,12.343284,,,1,,2,,,700
NSR:StopPlace:43457,,Dolmset,,63.986137,10.13973,,,1,,2,,,700
NSR:StopPlace:42126,,Innset S-lag,,62.719627,10.02805,,,1,,2,,,700
NSR:StopPlace:43467,,Dombu,,63.05743,9.649525,,,1,,2,,,700
NSR:StopPlace:42136,,Vestre Sætran,,63.34401,10.461461,,,1,,2,,,700
NSR:StopPlace:44799,,Sæter,,63.572712,10.396776,,,1,,2,,,700
NSR:StopPlace:42135,,Isbrekka,,62.510098,9.599624,,,1,,2,,,700
NSR:StopPlace:43466,,Olden,,63.872494,9.922993,,,1,,2,,,700
NSR:StopPlace:42134,,Sinnes,,63.22765,9.034124,,,1,,2,,,700
NSR:StopPlace:43465,,Amunddal,,63.334526,10.481454,,,1,,2,,,700
NSR:StopPlace:43464,,Dolpa,,63.417583,10.539708,,,1,,2,,,700
NSR:StopPlace:42133,,Vestre Sandneset,,62.673893,11.556803,,,1,,2,,,700
NSR:StopPlace:42132,,Innstrand,,63.730644,9.652326,,,1,,2,,,700
NSR:StopPlace:42131,,Singsåsmoen,,62.95026,10.753121,,,1,,2,,,700
NSR:StopPlace:42130,,Vestre Rosten,,63.360756,10.369313,,,1,,2,,,700
NSR:StopPlace:43461,,Dolmsundet,,63.636707,8.817867,,,1,,2,,,700
NSR:StopPlace:43460,,Olav Tryggvasons gate,,63.433308,10.399541,,,1,,2,,,700
NSR:StopPlace:44790,,Voldsdalen,,63.498787,10.867348,,,1,,2,,,700
NSR:StopPlace:44791,,Hindrem,,63.582363,10.417703,,,1,,2,,,700
NSR:StopPlace:44792,,Hell,,63.4451,10.911431,,,1,,2,,,700
NSR:StopPlace:44793,,Skogenget,,64.828926,12.384542,,,1,,2,,,700
NSR:StopPlace:44794,,Amborneset,,63.571346,10.416493,,,1,,2,,,700
NSR:StopPlace:44795,,Malvikkrysset,,63.443813,10.923269,,,1,,2,,,700
NSR:StopPlace:42139,,Vestrått,,63.714508,9.714575,,,1,,2,,,700
NSR:StopPlace:44796,,Almstad,,63.569607,10.408498,,,1,,2,,,700
NSR:StopPlace:43469,,Dora,,63.438587,10.421238,,,1,,2,,,700
NSR:StopPlace:44797,,Lona Bru,,64.85569,12.414928,,,1,,2,,,700
NSR:StopPlace:42138,,Sirum,,63.263916,11.080351,,,1,,2,,,700
NSR:StopPlace:44798,,Bjørgmyrene,,63.436646,10.927826,,,1,,2,,,700
NSR:StopPlace:43468,,Anders Buens gate,,63.43841,10.429672,,,1,,2,,,700
NSR:StopPlace:43478,,Ankers gate,,63.42486,10.416755,,,1,,2,,,700
NSR:StopPlace:46505,,Horka,,64.43881,11.794339,,,1,,2,,,700
NSR:StopPlace:42147,,Sistranda skole,,63.73203,8.829527,,,1,,2,,,700
NSR:StopPlace:42146,,Grensen,,64.111626,10.542721,,,1,,2,,,700
NSR:StopPlace:43477,,Olderdalen,,63.422478,10.525164,,,1,,2,,,700
NSR:StopPlace:46504,,Røra stasjon,,63.856976,11.401169,,,1,,2,,,700
NSR:StopPlace:43476,,Dragset,,63.11512,9.608752,,,1,,2,,,700
NSR:StopPlace:46507,,Råbakken,,64.46191,11.710215,,,1,,2,,,700
NSR:StopPlace:42145,,Vigdalsmo,,63.25144,10.176866,,,1,,2,,,700
NSR:StopPlace:43475,,Angelltrøvegen,,63.41715,10.461507,,,1,,2,,,700
NSR:StopPlace:46506,,Svimyra,,63.870255,11.404088,,,1,,2,,,700
NSR:StopPlace:43474,,Angarden,,62.670315,9.196631,,,1,,2,,,700
NSR:StopPlace:46509,,Mælen,,64.443565,11.814962,,,1,,2,,,700
NSR:StopPlace:43473,,Dragseid,,63.94895,10.100398,,,1,,2,,,700
NSR:StopPlace:42142,,Isdamvegen,,63.345333,10.377572,,,1,,2,,,700
NSR:StopPlace:46508,,Berg nord,,63.88139,11.428079,,,1,,2,,,700
NSR:StopPlace:42140,,Isdammen,,63.408283,10.790445,,,1,,2,,,700
NSR:StopPlace:43471,,Olden veikryss,,63.866817,9.890319,,,1,,2,,,700
NSR:StopPlace:43470,,Anderskog,,63.461704,8.328038,,,1,,2,,,700
NSR:StopPlace:46501,,Røra,,63.859253,11.40047,,,1,,2,,,700
NSR:StopPlace:46500,,Lilleøen,,64.444466,11.850201,,,1,,2,,,700
NSR:StopPlace:46503,,Eggen,,64.23855,12.45734,,,1,,2,,,700
NSR:StopPlace:42149,,Vigdalsmo boligfelt,,63.253006,10.182258,,,1,,2,,,700
NSR:StopPlace:43479,,Dragsetmoen,,63.11811,9.611521,,,1,,2,,,700
NSR:StopPlace:46502,,Homstad,,64.439415,11.820494,,,1,,2,,,700
NSR:StopPlace:42148,,Gressli,,63.059856,11.450716,,,1,,2,,,700
NSR:StopPlace:43489,,Driva X,,62.527565,9.610195,,,1,,2,,,700
NSR:StopPlace:46516,,Kolven,,64.23929,12.478873,,,1,,2,,,700
NSR:StopPlace:42158,,Sjøbakken,,62.58238,11.396949,,,1,,2,,,700
NSR:StopPlace:42157,,Grilstadkleiva,,63.433685,10.500223,,,1,,2,,,700
NSR:StopPlace:43488,,Anton Grevskotts veg,,63.40367,10.405687,,,1,,2,,,700
NSR:StopPlace:46515,,Ristad vegdele,,64.45251,11.891574,,,1,,2,,,700
NSR:StopPlace:42156,,Vik,,64.25425,10.354065,,,1,,2,,,700
NSR:StopPlace:43487,,Driva,,62.53407,9.621386,,,1,,2,,,700
NSR:StopPlace:46518,,Hylla,,63.84104,11.386034,,,1,,2,,,700
NSR:StopPlace:46517,,Gansmo vegdele,,64.46494,11.900841,,,1,,2,,,700
NSR:StopPlace:42155,,Sjøbakken,,62.58303,11.396621,,,1,,2,,,700
NSR:StopPlace:43486,,Olsvik,,63.49437,8.924128,,,1,,2,,,700
NSR:StopPlace:42154,,Grevskott,,63.212215,10.382543,,,1,,2,,,700
NSR:StopPlace:43485,,Ansnes,,63.637234,8.989868,,,1,,2,,,700
NSR:StopPlace:42153,,Sjetnhaugan,,63.369125,10.396589,,,1,,2,,,700
NSR:StopPlace:46519,,Grandan,,63.88099,11.385609,,,1,,2,,,700
NSR:StopPlace:43483,,Anshus,,62.938877,10.205173,,,1,,2,,,700
NSR:StopPlace:42152,,Viggja,,63.3453,9.991473,,,1,,2,,,700
NSR:StopPlace:43482,,Ole Ross' veg,,63.35163,10.375525,,,1,,2,,,700
NSR:StopPlace:42151,,Gresslivoll,,63.054985,11.471323,,,1,,2,,,700
NSR:StopPlace:42150,,Sivert Thonstads vei,,63.358807,10.36861,,,1,,2,,,700
NSR:StopPlace:43481,,Annøl,,63.30415,9.762619,,,1,,2,,,700
NSR:StopPlace:43480,,Dragvoll,,63.40781,10.471555,,,1,,2,,,700
NSR:StopPlace:46510,,Røskje,,63.884293,11.427376,,,1,,2,,,700
NSR:StopPlace:46512,,Storøya,,64.44942,11.840644,,,1,,2,,,700
NSR:StopPlace:46511,,Aun,,64.239204,12.468317,,,1,,2,,,700
NSR:StopPlace:46514,,Flaget,,63.851948,11.348154,,,1,,2,,,700
NSR:StopPlace:46513,,Nyjalet,,63.867687,11.36636,,,1,,2,,,700
NSR:StopPlace:46527,,Flasnes,,64.52287,12.083602,,,1,,2,,,700
NSR:StopPlace:42169,,Skaget,,63.58116,8.959683,,,1,,2,,,700
NSR:StopPlace:43499,,Arnevik,,63.937798,10.223526,,,1,,2,,,700
NSR:StopPlace:46526,,Korsen Gangstad,,63.9518,11.374572,,,1,,2,,,700
NSR:StopPlace:42168,,Vikan,,63.798656,8.781929,,,1,,2,,,700
NSR:StopPlace:42167,,Grindal Handel,,62.917183,9.764316,,,1,,2,,,700
NSR:StopPlace:46529,,Galguften,,64.53815,12.137782,,,1,,2,,,700
NSR:StopPlace:43497,,Arne Bergsgårds veg,,63.399376,10.43801,,,1,,2,,,700
NSR:StopPlace:42166,,Sjølyst,,63.437515,10.592551,,,1,,2,,,700
NSR:StopPlace:46528,,Hemre,,63.954876,11.2744,,,1,,2,,,700
NSR:StopPlace:42165,,Vikakrysset,,62.676884,11.457888,,,1,,2,,,700
NSR:StopPlace:42164,,Grimstad,,63.938164,10.042339,,,1,,2,,,700
NSR:StopPlace:43495,,Klæbuveien omkjøringsvei,,63.402313,10.407414,,,1,,2,,,700
NSR:StopPlace:42163,,Sjøla,,63.31769,10.403779,,,1,,2,,,700
NSR:StopPlace:42162,,Vika kryss,,62.5934,9.61949,,,1,,2,,,700
NSR:StopPlace:43492,,Olsøya,,63.672977,10.211108,,,1,,2,,,700
NSR:StopPlace:42161,,Sjøgården,,63.924046,10.049543,,,1,,2,,,700
NSR:StopPlace:43490,,Drivstua,,62.427418,9.622272,,,1,,2,,,700
NSR:StopPlace:59821,,Klettkrysset,,63.322872,10.302435,,,1,,2,,,700
NSR:StopPlace:59825,,Joplassveien,,63.30363,9.862794,,,1,,2,,,700
NSR:StopPlace:59826,,Nedre Hovsbakken,,63.307293,9.857169,,,1,,2,,,700
NSR:StopPlace:38904,,Årvåg,,63.34918,8.850106,,,1,,2,,,700
NSR:StopPlace:46521,,Loråsmarka,,63.868874,11.372703,,,1,,2,,,700
NSR:StopPlace:46520,,Øysvold sentrum,,64.47317,11.897081,,,1,,2,,,700
NSR:StopPlace:46523,,Skavlan,,64.24115,12.491047,,,1,,2,,,700
NSR:StopPlace:46522,,Fuglår,,64.51536,12.036002,,,1,,2,,,700
NSR:StopPlace:46525,,Røttesmoen,,64.52232,12.063973,,,1,,2,,,700
NSR:StopPlace:46524,,Røra skole,,63.85993,11.397043,,,1,,2,,,700
NSR:StopPlace:46538,,Gåsmoen,,64.25618,12.536388,,,1,,2,,,700
NSR:StopPlace:45206,,Flekstad,,64.13567,11.71253,,,1,,2,,,700
NSR:StopPlace:46537,,Otervegen,,63.9196,11.210719,,,1,,2,,,700
NSR:StopPlace:45207,,Fossen,,63.71458,11.360843,,,1,,2,,,700
NSR:StopPlace:42179,,Grindskarvatnet,,63.67114,9.048539,,,1,,2,,,700
NSR:StopPlace:42178,,Skansen,,63.4299,10.372713,,,1,,2,,,700
NSR:StopPlace:45208,,Klingsundet,,64.140015,11.738387,,,1,,2,,,700
NSR:StopPlace:46539,,Skippervegen,,63.91737,11.205917,,,1,,2,,,700
NSR:StopPlace:42177,,Vikasundet,,63.80129,8.775514,,,1,,2,,,700
NSR:StopPlace:42175,,Skain,,62.94426,10.224391,,,1,,2,,,700
NSR:StopPlace:42174,,Vikan,,63.345413,10.046263,,,1,,2,,,700
NSR:StopPlace:42173,,Grinden,,63.382904,10.163618,,,1,,2,,,700
NSR:StopPlace:42172,,Skagset,,63.289333,10.094284,,,1,,2,,,700
NSR:StopPlace:42171,,Vikan,,63.52023,10.15045,,,1,,2,,,700
NSR:StopPlace:42170,,Grindal Nedre,,62.940582,9.768739,,,1,,2,,,700
NSR:StopPlace:46530,,Vikan Kjerknesvågen,,63.939175,11.235139,,,1,,2,,,700
NSR:StopPlace:46532,,Agle,,63.936413,11.235342,,,1,,2,,,700
NSR:StopPlace:45200,,Granlia,,64.08916,11.522073,,,1,,2,,,700
NSR:StopPlace:46531,,Engum,,64.24275,12.510211,,,1,,2,,,700
NSR:StopPlace:45201,,Slåttsve,,63.716312,11.380068,,,1,,2,,,700
NSR:StopPlace:45203,,Haugåsen,,64.1113,11.573993,,,1,,2,,,700
NSR:StopPlace:46533,,Brekksillan,,64.61698,11.428518,,,1,,2,,,700
NSR:StopPlace:45204,,Bergenget,,63.714855,11.365587,,,1,,2,,,700
NSR:StopPlace:46535,,Nedre Vist,,63.929974,11.226358,,,1,,2,,,700
NSR:StopPlace:45205,,Efskin,,63.777775,11.716106,,,1,,2,,,700
NSR:StopPlace:45217,,Østnes,,63.770397,11.731301,,,1,,2,,,700
NSR:StopPlace:46548,,Kjelvik,,63.90467,11.160538,,,1,,2,,,700
NSR:StopPlace:45218,,Matberg,,63.721165,11.315081,,,1,,2,,,700
NSR:StopPlace:42189,,Skarsem,,62.608994,9.614526,,,1,,2,,,700
NSR:StopPlace:45219,,Kjerkolkorsen,,64.18388,11.895055,,,1,,2,,,700
NSR:StopPlace:42188,,Grostad,,63.4454,9.875052,,,1,,2,,,700
NSR:StopPlace:42187,,Viken,,64.1815,10.217104,,,1,,2,,,700
NSR:StopPlace:42186,,Skaret,,63.720512,9.573496,,,1,,2,,,700
NSR:StopPlace:42185,,Groegga,Oppøyen,63.1595,9.677098,,,1,,2,,,700
NSR:StopPlace:42184,,Skansen,,62.64585,9.297435,,,1,,2,,,700
NSR:StopPlace:42183,,Vikelvveien,,63.423595,10.541123,,,1,,2,,,700
NSR:StopPlace:42181,,Groegga,,63.171722,9.570468,,,1,,2,,,700
NSR:StopPlace:42180,,Vikasætra,,62.58717,9.498091,,,1,,2,,,700
NSR:StopPlace:38923,,Fjærli,,63.1223,8.61897,,,1,,2,,,700
NSR:StopPlace:38928,,Ytre Fjærli,,63.12881,8.597902,,,1,,2,,,700
NSR:StopPlace:46541,,Sveet,,63.91561,11.201556,,,1,,2,,,700
NSR:StopPlace:45210,,Langåsdammen,,63.71067,11.349916,,,1,,2,,,700
NSR:StopPlace:46543,,Ålmo,,64.2637,12.556791,,,1,,2,,,700
NSR:StopPlace:45211,,Strømstad,,64.15931,11.774533,,,1,,2,,,700
NSR:StopPlace:46542,,Fosnes,,64.6826,11.298633,,,1,,2,,,700
NSR:StopPlace:45212,,Bjørås,,63.71318,11.334639,,,1,,2,,,700
NSR:StopPlace:46545,,Leite,,64.68005,11.290563,,,1,,2,,,700
NSR:StopPlace:46544,,Kåmyr,,63.91313,11.198092,,,1,,2,,,700
NSR:StopPlace:45214,,Braset Braset,,64.18004,11.848761,,,1,,2,,,700
NSR:StopPlace:46547,,Myrmo,,64.67792,11.290269,,,1,,2,,,700
NSR:StopPlace:45215,,Stubbe,,63.715546,11.326675,,,1,,2,,,700
NSR:StopPlace:46546,,Melakorsen,,63.907864,11.17477,,,1,,2,,,700
NSR:StopPlace:45216,,Øksnes,,64.17862,11.866051,,,1,,2,,,700
NSR:StopPlace:41662,,Hermstad,,63.560837,10.092568,,,1,,2,,,700
NSR:StopPlace:42994,,Teigen,,63.26592,10.525184,,,1,,2,,,700
NSR:StopPlace:42993,,Løften,,63.189945,9.797541,,,1,,2,,,700
NSR:StopPlace:42992,,Teglverkskrysset,,63.418316,10.448104,,,1,,2,,,700
NSR:StopPlace:41660,,Orkanger Torg,,63.30447,9.848899,,,1,,2,,,700
NSR:StopPlace:42991,,Løften,,63.451504,10.279024,,,1,,2,,,700
NSR:StopPlace:41661,,Raphaugen,,62.829655,10.485588,,,1,,2,,,700
NSR:StopPlace:42990,,Møsta,,63.185436,10.313474,,,1,,2,,,700
NSR:StopPlace:41669,,Raustein,,63.618515,9.603461,,,1,,2,,,700
NSR:StopPlace:42999,,Løkhaug,,63.59873,9.535325,,,1,,2,,,700
NSR:StopPlace:41667,,Raudberget,,63.48961,9.990183,,,1,,2,,,700
NSR:StopPlace:42997,,Løhre,,63.16758,10.312844,,,1,,2,,,700
NSR:StopPlace:42996,,Teksdal,,63.84712,9.89174,,,1,,2,,,700
NSR:StopPlace:41664,,Torp,,63.433956,10.692009,,,1,,2,,,700
NSR:StopPlace:42995,,Edvard Bulls veg,,63.41049,10.470491,,,1,,2,,,700
NSR:StopPlace:41665,,Rate,,63.38701,10.39754,,,1,,2,,,700
NSR:StopPlace:41673,,Refset,,62.997112,10.466153,,,1,,2,,,700
NSR:StopPlace:44700,,Grannes,,64.58333,12.204046,,,1,,2,,,700
NSR:StopPlace:41674,,Herremsveien,,62.88611,9.829647,,,1,,2,,,700
NSR:StopPlace:41671,,Ravnås,,62.926804,10.708697,,,1,,2,,,700
NSR:StopPlace:44702,,Klungerbu,,63.69639,10.690539,,,1,,2,,,700
NSR:StopPlace:41672,,Tors veg,,63.404846,10.42714,,,1,,2,,,700
NSR:StopPlace:44703,,Blåveislia,,63.48265,10.925778,,,1,,2,,,700
NSR:StopPlace:44704,,Mevassvik snuplass,,64.5821,12.20293,,,1,,2,,,700
NSR:StopPlace:44705,,Selli,,63.699482,10.712552,,,1,,2,,,700
NSR:StopPlace:41670,,Hernes kryss,,63.50356,8.362403,,,1,,2,,,700
NSR:StopPlace:44706,,Tangmo,,63.490116,10.818109,,,1,,2,,,700
NSR:StopPlace:44708,,Myrmo Drætvika,,63.706837,10.732776,,,1,,2,,,700
NSR:StopPlace:44709,,Dullumfeltet,,63.4858,10.951963,,,1,,2,,,700
NSR:StopPlace:41679,,Reinsjøen,,63.49728,10.033735,,,1,,2,,,700
NSR:StopPlace:41677,,Hessdalen kirke,,62.790592,11.18186,,,1,,2,,,700
NSR:StopPlace:41678,,Rein,,63.5645,9.924488,,,1,,2,,,700
NSR:StopPlace:41675,,Refsnes,,63.716606,9.970054,,,1,,2,,,700
NSR:StopPlace:41676,,Torshus,,63.257442,9.779842,,,1,,2,,,700
NSR:StopPlace:41684,,Torvmyra,,63.361347,10.390794,,,1,,2,,,700
NSR:StopPlace:44711,,Hæglia,,64.56305,12.19611,,,1,,2,,,700
NSR:StopPlace:41685,,Hessdalskrysset,,62.84863,11.244837,,,1,,2,,,700
NSR:StopPlace:44712,,Dretvik øvre,,63.711876,10.757561,,,1,,2,,,700
NSR:StopPlace:44713,,Almovatnet,,63.52571,11.053398,,,1,,2,,,700
NSR:StopPlace:41682,,Reinskleiva,,63.22574,9.784699,,,1,,2,,,700
NSR:StopPlace:41683,,Reistøa,,62.964134,10.86776,,,1,,2,,,700
NSR:StopPlace:44714,,Brøndbo,,64.6184,12.336262,,,1,,2,,,700
NSR:StopPlace:41680,,Torvet,,63.551456,9.924801,,,1,,2,,,700
NSR:StopPlace:44715,,Myrenget,,63.71394,10.777502,,,1,,2,,,700
NSR:StopPlace:41681,,Hessdalskjølen,,62.83494,11.202646,,,1,,2,,,700
NSR:StopPlace:44718,,Skarland,,64.637856,12.32706,,,1,,2,,,700
NSR:StopPlace:41688,,Torvtaket,,63.348537,10.377095,,,1,,2,,,700
NSR:StopPlace:41689,,Hestnes,,63.590256,8.58868,,,1,,2,,,700
NSR:StopPlace:41686,,Reitan,,63.32375,9.822494,,,1,,2,,,700
NSR:StopPlace:41687,,Reitan bru,,62.950527,11.806026,,,1,,2,,,700
NSR:StopPlace:44722,,Haraldreina,,63.463634,10.978458,,,1,,2,,,700
NSR:StopPlace:41695,,Trafost,,63.574245,8.958624,,,1,,2,,,700
NSR:StopPlace:41696,,Hesttrø,,63.298195,10.483369,,,1,,2,,,700
NSR:StopPlace:44724,,Solvang Øy,,64.71299,12.322148,,,1,,2,,,700
NSR:StopPlace:41693,,Reksa,,63.6459,9.16933,,,1,,2,,,700
NSR:StopPlace:44725,,Bergskleiva,,63.46008,11.010309,,,1,,2,,,700
NSR:StopPlace:41694,,Renbrua,,62.837746,11.328744,,,1,,2,,,700
NSR:StopPlace:41691,,Hestsjøen,,63.35638,10.271886,,,1,,2,,,700
NSR:StopPlace:44726,,Setertrøa,,63.575184,10.37811,,,1,,2,,,700
NSR:StopPlace:44727,,Hofstad,,63.463226,11.033398,,,1,,2,,,700
NSR:StopPlace:44729,,Knarbakkan,,63.598644,10.220093,,,1,,2,,,700
NSR:StopPlace:41699,,Hesttrøa,,63.2946,10.332134,,,1,,2,,,700
NSR:StopPlace:41698,,Reppe,,63.416,10.557962,,,1,,2,,,700
NSR:StopPlace:43401,,Strand,,63.28215,9.043189,,,1,,2,,,700
NSR:StopPlace:44733,,Høgli,,63.55905,10.184117,,,1,,2,,,700
NSR:StopPlace:43400,,Okstadvegen,,63.383015,10.379107,,,1,,2,,,700
NSR:StopPlace:44734,,Revyriket,,64.62822,12.304024,,,1,,2,,,700
NSR:StopPlace:44736,,Gråvvåbakkan,,63.550697,10.190472,,,1,,2,,,700
NSR:StopPlace:44737,,Aunet,,64.88563,12.459631,,,1,,2,,,700
NSR:StopPlace:44738,,Hegramo,,63.46392,11.115337,,,1,,2,,,700
NSR:StopPlace:44739,,Munken,,63.55897,10.313708,,,1,,2,,,700
NSR:StopPlace:43409,,Kvamsgjerdet,,63.061092,9.642068,,,1,,2,,,700
NSR:StopPlace:43408,,Strand,,62.689495,9.932983,,,1,,2,,,700
